Granule Name,Platform,Sensor,Beam Mode,Absolute Orbit,Relative Orbit,Path Number,Frame Number,Acquisition Date,Processing Date,Processing Level,Start Time,End Time,Center Lat,Center Lon,Near Start Lat,Near Start Lon,Far Start Lat,Far Start Lon,Near End Lat,Near End Lon,Far End Lat,Far End Lon,Faraday Rotation,Ascending or Descending?,Size (MB),Off Nadir Angle,Stack Size,Baseline Perp.,Doppler,Stack ID
S1A_IW_OCN__2SDV_20171109T171859_20171109T171921_019191_0207C5_6A36,SENTINEL-1A,SENTINEL-1 C-SAR,IW,19191,44,44,393,2017-11-09T17:19:21.769075,2017-11-09T20:47:35Z,OCN,2017-11-09T17:18:59.943932,2017-11-09T17:19:21.769075,60.003,-164.3107,60.421524,-161.792343,60.844479,-166.362076,59.126728,-162.370438,59.543213,-166.767044,NaN,Descending,4.57 MB,0,,,0,
S1A_IW_OCN__2SDV_20171109T171834_20171109T171859_019191_0207C5_256B,SENTINEL-1A,SENTINEL-1 C-SAR,IW,19191,44,44,388,2017-11-09T17:18:59.942426,2017-11-09T21:23:54Z,OCN,2017-11-09T17:18:34.944487,2017-11-09T17:18:59.942421,61.396,-163.7681,61.902523,-161.087341,62.33429,-165.877106,60.421612,-161.792297,60.844677,-166.363495,NaN,Descending,5.11 MB,0,,,0,
S1A_IW_OCN__2SDV_20171109T171809_20171109T171834_019191_0207C5_8F42,SENTINEL-1A,SENTINEL-1 C-SAR,IW,19191,44,44,383,2017-11-09T17:18:34.942988,2017-11-09T20:52:01Z,OCN,2017-11-09T17:18:09.943552,2017-11-09T17:18:34.942988,62.8817,-163.149,63.38052,-160.324249,63.822914,-165.35939,61.902611,-161.087296,62.334518,-165.878983,NaN,Descending,5.36 MB,0,,,0,
S1B_IW_OCN__2SDV_20171109T030305_20171109T030330_008199_00E7DA_8FC5,SENTINEL-1B,SENTINEL-1 C-SAR,IW,8199,123,123,202,2017-11-09T03:03:30.725416,2017-11-09T07:15:36Z,OCN,2017-11-09T03:03:05.727325,2017-11-09T03:03:30.725373,62.5324,-141.8227,61.556778,-143.851456,61.984348,-139.11171,63.032402,-144.626785,63.470955,-139.650253,NaN,Ascending,5.28 MB,0,,,0,
S1B_IW_OCN__2SDV_20171109T030240_20171109T030305_008199_00E7DA_FBED,SENTINEL-1B,SENTINEL-1 C-SAR,IW,8199,123,123,197,2017-11-09T03:03:05.725853,2017-11-09T07:12:47Z,OCN,2017-11-09T03:02:40.727791,2017-11-09T03:03:05.725853,61.0462,-141.2156,60.072048,-143.1875,60.492237,-138.662933,61.556686,-143.85144,61.98418,-139.112823,NaN,Ascending,5.31 MB,0,,,0,
S1A_IW_OCN__2SDV_20171107T173436_20171107T173501_019162_0206DF_8F4D,SENTINEL-1A,SENTINEL-1 C-SAR,IW,19162,15,15,382,2017-11-07T17:35:01.998975,2017-11-07T21:13:04Z,OCN,2017-11-07T17:34:36.999952,2017-11-07T17:35:01.998972,62.9066,-167.2469,63.405548,-164.422791,63.847694,-169.454895,61.927761,-165.187454,62.359375,-169.976059,NaN,Descending,6.31 MB,0,,,0,
S1A_IW_OCN__2SDV_20171107T173411_20171107T173436_019162_0206DF_DDCB,SENTINEL-1A,SENTINEL-1 C-SAR,IW,19162,15,15,377,2017-11-07T17:34:36.998452,2017-11-07T21:18:25Z,OCN,2017-11-07T17:34:11.999431,2017-11-07T17:34:36.998450,64.3903,-166.5803,64.880753,-163.597961,65.335365,-168.904617,63.405636,-164.422745,63.847908,-169.45668,NaN,Descending,6.06 MB,0,,,0,
S1A_IW_OCN__2SDV_20171107T173347_20171107T173411_019162_0206DF_AA95,SENTINEL-1A,SENTINEL-1 C-SAR,IW,19162,15,15,372,2017-11-07T17:34:11.997931,2017-11-07T21:08:30Z,OCN,2017-11-07T17:33:47.000412,2017-11-07T17:34:11.997931,65.8716,-165.8551,66.350914,-162.683945,66.820847,-168.300018,64.880844,-163.5979,65.335648,-168.907547,NaN,Descending,5.86 MB,0,,,0,
S1A_IW_OCN__2SDV_20171107T155639_20171107T155707_019161_0206D6_427E,SENTINEL-1A,SENTINEL-1 C-SAR,IW,19161,14,14,392,2017-11-07T15:57:07.013389,2017-11-07T21:40:52Z,OCN,2017-11-07T15:56:39.349380,2017-11-07T15:57:07.013387,60.043,-143.7438,60.638714,-141.177689,61.059498,-145.75943,58.99168,-141.857681,59.4062,-146.220062,NaN,Descending,5.72 MB,0,,,0,
S1A_IW_OCN__2SDV_20171107T155614_20171107T155639_019161_0206D6_7C64,SENTINEL-1A,SENTINEL-1 C-SAR,IW,19161,14,14,387,2017-11-07T15:56:39.347883,2017-11-07T21:30:22Z,OCN,2017-11-07T15:56:14.348494,2017-11-07T15:56:39.347881,61.6112,-143.1474,62.117245,-140.446518,62.547764,-145.251373,60.638802,-141.177673,61.059723,-145.761246,NaN,Descending,5.37 MB,0,,,0,
S1A_IW_OCN__2SDV_20171107T155549_20171107T155614_019161_0206D6_3F9C,SENTINEL-1A,SENTINEL-1 C-SAR,IW,19161,14,14,382,2017-11-07T15:56:14.346989,2017-11-07T21:31:57Z,OCN,2017-11-07T15:55:49.349103,2017-11-07T15:56:14.346988,63.0952,-142.5088,63.593922,-139.668274,64.035507,-144.720932,62.117329,-140.446396,62.547974,-145.253006,NaN,Descending,5.32 MB,0,,,0,
S1B_IW_OCN__2SDV_20171107T031924_20171107T031949_008170_00E708_9762,SENTINEL-1B,SENTINEL-1 C-SAR,IW,8170,94,94,200,2017-11-07T03:19:49.557171,2017-11-07T10:18:19Z,OCN,2017-11-07T03:19:24.559053,2017-11-07T03:19:49.557170,62.0138,-145.736,61.037575,-147.752869,61.463528,-143.087143,62.517975,-148.473831,62.953033,-143.579834,NaN,Ascending,5.30 MB,0,,,0,
S1B_IW_OCN__2SDV_20171107T031855_20171107T031924_008170_00E708_9790,SENTINEL-1B,SENTINEL-1 C-SAR,IW,8170,94,94,194,2017-11-07T03:19:24.557554,2017-11-07T10:09:01Z,OCN,2017-11-07T03:18:55.544239,2017-11-07T03:19:24.557554,60.4062,-145.1113,59.314037,-146.996765,59.731766,-142.570282,61.037495,-147.752731,61.463322,-143.088684,NaN,Ascending,5.94 MB,0,,,0,
S1B_WV_OCN__2SSV_20171102T023607_20171102T031232_008096_00E4E4_B3C2,SENTINEL-1B,SENTINEL-1 C-SAR,WV,8096,20,20,964,2017-11-02T03:12:32.760673,2017-11-02T21:37:03Z,OCN,2017-11-02T02:36:06.697822,2017-11-02T03:12:32.760673,0.7229,-129.4268,64.622643,-149.278,65.885078,-145.897858,-64.54274,-105.725372,-63.135597,-103.084267,NaN,Ascending,4.68 MB,0,,,0,
S1B_WV_OCN__2SSV_20171019T025328_20171019T032924_007892_00DF0D_52D9,SENTINEL-1B,SENTINEL-1 C-SAR,WV,7892,166,166,975,2017-10-19T03:29:25.278099,2017-10-21T02:29:42Z,OCN,2017-10-19T02:53:28.509223,2017-10-19T03:29:25.278099,2.8269,-134.3208,66.101814,-154.364777,67.374939,-150.832443,-61.510147,-112.904678,-60.155613,-110.39225,NaN,Ascending,4.61 MB,0,,,0,
S1B_WV_OCN__2SSV_20171017T031037_20171017T034436_007863_00DE34_7796,SENTINEL-1B,SENTINEL-1 C-SAR,WV,7863,137,137,983,2017-10-17T03:44:37.155097,2017-10-19T05:28:21Z,OCN,2017-10-17T03:10:37.562171,2017-10-17T03:44:37.155097,2.0476,-138.3714,61.661118,-155.752655,62.903824,-152.651382,-59.158039,-119.008102,-57.837429,-116.591644,NaN,Ascending,4.35 MB,0,,,0,
S1A_IW_GRDH_1SDV_20171109T171859_20171109T171921_019191_0207C5_A115,SENTINEL-1A,SENTINEL-1 C-SAR,IW,19191,44,44,393,2017-11-09T17:19:21.769070,2017-11-09T20:48:48Z,GRD_HD,2017-11-09T17:18:59.943932,2017-11-09T17:19:21.769075,60.003,-164.3107,60.421524,-161.792343,60.844479,-166.362076,59.126728,-162.370438,59.543213,-166.767044,NaN,Descending,705.75 MB,0,,,0,
S1A_IW_GRDH_1SDV_20171109T171834_20171109T171859_019191_0207C5_8ACF,SENTINEL-1A,SENTINEL-1 C-SAR,IW,19191,44,44,388,2017-11-09T17:18:59.942421,2017-11-09T21:18:17Z,GRD_HD,2017-11-09T17:18:34.944487,2017-11-09T17:18:59.942421,61.396,-163.7681,61.902523,-161.087341,62.33429,-165.877106,60.421612,-161.792297,60.844677,-166.363495,NaN,Descending,861.28 MB,0,,,0,
S1A_IW_GRDH_1SDV_20171109T171809_20171109T171834_019191_0207C5_C083,SENTINEL-1A,SENTINEL-1 C-SAR,IW,19191,44,44,383,2017-11-09T17:18:34.942984,2017-11-09T20:59:59Z,GRD_HD,2017-11-09T17:18:09.943552,2017-11-09T17:18:34.942988,62.8817,-163.149,63.38052,-160.324249,63.822914,-165.35939,61.902611,-161.087296,62.334518,-165.878983,NaN,Descending,905.99 MB,0,,,0,
S1A_IW_GRDH_1SDV_20171109T171744_20171109T171809_019191_0207C5_248E,SENTINEL-1A,SENTINEL-1 C-SAR,IW,19191,44,44,378,2017-11-09T17:18:09.942042,2017-11-09T21:16:28Z,GRD_HD,2017-11-09T17:17:44.944110,2017-11-09T17:18:09.942042,64.3653,-162.4825,64.855469,-159.498444,65.310356,-164.807587,63.380608,-160.324188,63.823116,-165.360962,NaN,Descending,893.61 MB,0,,,0,
S1A_IW_GRDH_1SDV_20171109T171719_20171109T171744_019191_0207C5_7A2C,SENTINEL-1A,SENTINEL-1 C-SAR,IW,19191,44,44,373,2017-11-09T17:17:44.942609,2017-11-09T21:03:08Z,GRD_HD,2017-11-09T17:17:19.944676,2017-11-09T17:17:44.942609,65.8464,-161.7563,66.325607,-158.584915,66.795746,-164.202057,64.85556,-159.498383,65.310562,-164.809235,NaN,Descending,878.55 MB,0,,,0,
S1A_IW_GRDH_1SDV_20171109T171654_20171109T171719_019191_0207C5_C8D4,SENTINEL-1A,SENTINEL-1 C-SAR,IW,19191,44,44,368,2017-11-09T17:17:19.943173,2017-11-09T21:16:56Z,GRD_HD,2017-11-09T17:16:54.943739,2017-11-09T17:17:19.943173,67.3255,-160.9694,67.793869,-157.602249,68.281174,-163.568176,66.325699,-158.584854,66.795952,-164.203812,NaN,Descending,911.16 MB,0,,,0,
S1A_IW_GRDH_1SDV_20171109T171629_20171109T171654_019191_0207C5_95AB,SENTINEL-1A,SENTINEL-1 C-SAR,IW,19191,44,44,363,2017-11-09T17:16:54.942238,2017-11-09T21:08:15Z,GRD_HD,2017-11-09T17:16:29.944306,2017-11-09T17:16:54.942238,68.8014,-160.0999,69.253914,-156.479248,69.762924,-162.841675,67.793953,-157.602188,68.281387,-163.570038,NaN,Descending,874.88 MB,0,,,0,
S1A_IW_GRDH_1SDV_20171109T171600_20171109T171629_019191_0207C5_3A19,SENTINEL-1A,SENTINEL-1 C-SAR,IW,19191,44,44,357,2017-11-09T17:16:29.942804,2017-11-09T21:17:54Z,GRD_HD,2017-11-09T17:16:01.243370Z,2017-11-09T17:16:33.642937Z,70.1706,-159.0348,71.3377,-161.745,69.4074,-162.777,70.8554,-155.0225,68.9621,-156.6292,NaN,Descending,918.88 MB,0,,,0,
S1B_IW_GRDH_1SDV_20171109T030510_20171109T030538_008199_00E7DA_12AA,SENTINEL-1B,SENTINEL-1 C-SAR,IW,8199,123,123,227,2017-11-09T03:05:38.045622,2017-11-09T07:14:46Z,GRD_HD,2017-11-09T03:05:10.728075,2017-11-09T03:05:38.045622,69.9921,-145.8421,68.90979,-148.385971,69.412453,-142.117447,70.496826,-149.761322,71.02787,-143.011627,NaN,Ascending,878.64 MB,0,,,0,
S1B_IW_GRDH_1SDV_20171109T030445_20171109T030510_008199_00E7DA_AD09,SENTINEL-1B,SENTINEL-1 C-SAR,IW,8199,123,123,222,2017-11-09T03:05:10.726569,2017-11-09T07:19:44Z,GRD_HD,2017-11-09T03:04:45.727020,2017-11-09T03:05:10.726569,68.452,-144.8357,67.445969,-147.314896,67.928734,-141.431137,68.909698,-148.385925,69.412239,-142.119461,NaN,Ascending,941.12 MB,0,,,0,
S1B_IW_GRDH_1SDV_20171109T030420_20171109T030445_008199_00E7DA_FFC0,SENTINEL-1B,SENTINEL-1 C-SAR,IW,8199,123,123,217,2017-11-09T03:04:45.725521,2017-11-09T07:10:40Z,GRD_HD,2017-11-09T03:04:20.727473,2017-11-09T03:04:45.725521,66.9743,-143.9991,65.976532,-146.357315,66.442879,-140.812439,67.445877,-147.31485,67.928528,-141.432983,NaN,Ascending,879.33 MB,0,,,0,
S1B_IW_GRDH_1SDV_20171109T030355_20171109T030420_008199_00E7DA_7EC5,SENTINEL-1B,SENTINEL-1 C-SAR,IW,8199,123,123,212,2017-11-09T03:04:20.725974,2017-11-09T07:17:45Z,GRD_HD,2017-11-09T03:03:55.727926,2017-11-09T03:04:20.725974,65.4955,-143.2192,64.507645,-145.442429,64.958549,-140.197006,65.97644,-146.357254,66.442673,-140.814163,NaN,Ascending,904.87 MB,0,,,0,
S1B_IW_GRDH_1SDV_20171109T030330_20171109T030355_008199_00E7DA_33B3,SENTINEL-1B,SENTINEL-1 C-SAR,IW,8199,123,123,207,2017-11-09T03:03:55.726422,2017-11-09T07:14:06Z,GRD_HD,2017-11-09T03:03:30.726873,2017-11-09T03:03:55.726422,64.015,-142.4938,63.03249,-144.626831,63.471169,-139.648499,64.507553,-145.442383,64.958336,-140.198853,NaN,Ascending,902.65 MB,0,,,0,
S1B_IW_GRDH_1SDV_20171109T030305_20171109T030330_008199_00E7DA_F351,SENTINEL-1B,SENTINEL-1 C-SAR,IW,8199,123,123,202,2017-11-09T03:03:30.725373,2017-11-09T07:12:38Z,GRD_HD,2017-11-09T03:03:05.727325,2017-11-09T03:03:30.725373,62.5324,-141.8227,61.556778,-143.851456,61.984348,-139.11171,63.032402,-144.626785,63.470955,-139.650253,NaN,Ascending,933.44 MB,0,,,0,
S1B_IW_GRDH_1SDV_20171109T030240_20171109T030305_008199_00E7DA_5564,SENTINEL-1B,SENTINEL-1 C-SAR,IW,8199,123,123,197,2017-11-09T03:03:05.725824,2017-11-09T11:12:55Z,GRD_HD,2017-11-09T03:02:40.727791,2017-11-09T03:03:05.725853,61.0462,-141.2156,60.072048,-143.1875,60.492237,-138.662933,61.556686,-143.85144,61.98418,-139.112823,NaN,Ascending,987.38 MB,0,,,0,
S1A_IW_GRDH_1SDV_20171107T173436_20171107T173501_019162_0206DF_2C43,SENTINEL-1A,SENTINEL-1 C-SAR,IW,19162,15,15,382,2017-11-07T17:35:01.998972,2017-11-07T21:11:33Z,GRD_HD,2017-11-07T17:34:36.999952,2017-11-07T17:35:01.998972,62.9066,-167.2469,63.405548,-164.422791,63.847694,-169.454895,61.927761,-165.187454,62.359375,-169.976059,NaN,Descending,779.65 MB,0,,,0,
S1A_IW_GRDH_1SDV_20171107T173411_20171107T173436_019162_0206DF_3FE4,SENTINEL-1A,SENTINEL-1 C-SAR,IW,19162,15,15,377,2017-11-07T17:34:36.998450,2017-11-07T21:13:28Z,GRD_HD,2017-11-07T17:34:11.999431,2017-11-07T17:34:36.998450,64.3903,-166.5803,64.880753,-163.597961,65.335365,-168.904617,63.405636,-164.422745,63.847908,-169.45668,NaN,Descending,815.39 MB,0,,,0,
S1A_IW_GRDH_1SDV_20171107T173347_20171107T173411_019162_0206DF_09A4,SENTINEL-1A,SENTINEL-1 C-SAR,IW,19162,15,15,372,2017-11-07T17:34:11.997929,2017-11-07T21:15:20Z,GRD_HD,2017-11-07T17:33:47.000412,2017-11-07T17:34:11.997931,65.8716,-165.8551,66.350914,-162.683945,66.820847,-168.300018,64.880844,-163.5979,65.335648,-168.907547,NaN,Descending,858.75 MB,0,,,0,
S1A_IW_GRDH_1SDV_20171107T173321_20171107T173346_019162_0206DF_1538,SENTINEL-1A,SENTINEL-1 C-SAR,IW,19162,15,15,367,2017-11-07T17:33:46.998909,2017-11-07T21:15:00Z,GRD_HD,2017-11-07T17:33:21.999890,2017-11-07T17:33:46.998909,67.3503,-165.0631,67.818375,-161.692673,68.305702,-167.656342,66.351006,-162.683899,66.820976,-168.300659,NaN,Descending,820.70 MB,0,,,0,
S1A_IW_GRDH_1SDV_20171107T173252_20171107T173321_019162_0206DF_EEE2,SENTINEL-1A,SENTINEL-1 C-SAR,IW,19162,15,15,362,2017-11-07T17:33:21.998391,2017-11-07T21:08:50Z,GRD_HD,2017-11-07T17:32:52.961991,2017-11-07T17:33:21.998391,68.9449,-164.1146,69.513847,-160.375732,70.026711,-166.805313,67.818459,-161.692566,68.305908,-167.658173,NaN,Descending,965.04 MB,0,,,0,
S1A_IW_GRDH_1SDV_20171107T155639_20171107T155707_019161_0206D6_A48C,SENTINEL-1A,SENTINEL-1 C-SAR,IW,19161,14,14,392,2017-11-07T15:57:07.013387,2017-11-07T20:54:29Z,GRD_HD,2017-11-07T15:56:39.349380,2017-11-07T15:57:07.013387,60.043,-143.7438,60.638714,-141.177689,61.059498,-145.75943,58.99168,-141.857681,59.4062,-146.220062,NaN,Descending,915.61 MB,0,,,0,
S1A_IW_GRDH_1SDV_20171107T155614_20171107T155639_019161_0206D6_1838,SENTINEL-1A,SENTINEL-1 C-SAR,IW,19161,14,14,387,2017-11-07T15:56:39.347881,2017-11-07T20:08:42Z,GRD_HD,2017-11-07T15:56:14.348494,2017-11-07T15:56:39.347881,61.6112,-143.1474,62.117245,-140.446518,62.547764,-145.251373,60.638802,-141.177673,61.059723,-145.761246,NaN,Descending,966.47 MB,0,,,0,
S1A_IW_GRDH_1SDV_20171107T155549_20171107T155614_019161_0206D6_08C0,SENTINEL-1A,SENTINEL-1 C-SAR,IW,19161,14,14,382,2017-11-07T15:56:14.346988,2017-11-07T20:24:18Z,GRD_HD,2017-11-07T15:55:49.349103,2017-11-07T15:56:14.346988,63.0952,-142.5088,63.593922,-139.668274,64.035507,-144.720932,62.117329,-140.446396,62.547974,-145.253006,NaN,Descending,919.33 MB,0,,,0,
S1A_IW_GRDH_1SDV_20171107T155524_20171107T155549_019161_0206D6_E139,SENTINEL-1A,SENTINEL-1 C-SAR,IW,19161,14,14,377,2017-11-07T15:55:49.347606,2017-11-07T20:15:54Z,GRD_HD,2017-11-07T15:55:24.348219,2017-11-07T15:55:49.347606,64.5781,-141.8304,65.068222,-138.83078,65.522644,-144.161209,63.594009,-139.668228,64.035721,-144.722717,NaN,Descending,906.04 MB,0,,,0,
S1A_IW_GRDH_1SDV_20171107T155459_20171107T155524_019161_0206D6_77D4,SENTINEL-1A,SENTINEL-1 C-SAR,IW,19161,14,14,372,2017-11-07T15:55:24.346717,2017-11-07T20:15:55Z,GRD_HD,2017-11-07T15:54:59.348831,2017-11-07T15:55:24.346717,66.0586,-141.0927,66.537376,-137.901947,67.007492,-143.544525,65.068306,-138.830734,65.522842,-144.162872,NaN,Descending,916.49 MB,0,,,0,
S1A_IW_GRDH_1SDV_20171107T155430_20171107T155459_019161_0206D6_FB01,SENTINEL-1A,SENTINEL-1 C-SAR,IW,19161,14,14,366,2017-11-07T15:54:59.347330,2017-11-07T20:16:08Z,GRD_HD,2017-11-07T15:54:30.315734,2017-11-07T15:54:59.347330,67.6554,-140.217,68.239014,-136.713348,68.730614,-142.770432,66.537468,-137.901886,67.007698,-143.546295,NaN,Descending,999.89 MB,0,,,0,
S1B_IW_GRDH_1SDV_20171107T032129_20171107T032154_008170_00E708_32CB,SENTINEL-1B,SENTINEL-1 C-SAR,IW,8170,94,94,225,2017-11-07T03:21:54.556779,2017-11-07T09:07:09Z,GRD_HD,2017-11-07T03:21:29.558660,2017-11-07T03:21:54.556779,69.4114,-149.5684,68.400185,-152.11972,68.896141,-145.984192,69.856163,-153.311401,70.375954,-146.758347,NaN,Ascending,859.21 MB,0,,,0,
S1B_IW_GRDH_1SDV_20171107T032104_20171107T032129_008170_00E708_F78D,SENTINEL-1B,SENTINEL-1 C-SAR,IW,8170,94,94,220,2017-11-07T03:21:29.557155,2017-11-07T10:08:01Z,GRD_HD,2017-11-07T03:21:04.559036,2017-11-07T03:21:29.557155,67.9383,-148.6445,66.935921,-151.075226,67.412552,-145.309479,68.400101,-152.119644,68.895828,-145.987823,NaN,Ascending,922.84 MB,0,,,0,
S1B_IW_GRDH_1SDV_20171107T032039_20171107T032104_008170_00E708_FE42,SENTINEL-1B,SENTINEL-1 C-SAR,IW,8170,94,94,215,2017-11-07T03:21:04.557535,2017-11-07T09:15:17Z,GRD_HD,2017-11-07T03:20:39.559417,2017-11-07T03:21:04.557535,66.4602,-147.8286,65.465279,-150.146957,65.926353,-144.706085,66.935837,-151.075165,67.412331,-145.311508,NaN,Ascending,896.05 MB,0,,,0,
S1B_IW_GRDH_1SDV_20171107T032014_20171107T032039_008170_00E708_C9D6,SENTINEL-1B,SENTINEL-1 C-SAR,IW,8170,94,94,210,2017-11-07T03:20:39.557917,2017-11-07T09:00:08Z,GRD_HD,2017-11-07T03:20:14.558296,2017-11-07T03:20:39.557917,64.9796,-147.0823,63.992661,-149.281601,64.439941,-144.128906,65.465187,-150.146896,65.926155,-144.707779,NaN,Ascending,915.21 MB,0,,,0,
S1B_IW_GRDH_1SDV_20171107T031949_20171107T032014_008170_00E708_64BA,SENTINEL-1B,SENTINEL-1 C-SAR,IW,8170,94,94,205,2017-11-07T03:20:14.556795,2017-11-07T09:02:58Z,GRD_HD,2017-11-07T03:19:49.558676,2017-11-07T03:20:14.556795,63.4981,-146.3799,62.518063,-148.473892,62.953259,-143.577927,63.992573,-149.28154,64.439728,-144.130722,NaN,Ascending,931.19 MB,0,,,0,
S1B_IW_GRDH_1SDV_20171107T031924_20171107T031949_008170_00E708_F902,SENTINEL-1B,SENTINEL-1 C-SAR,IW,8170,94,94,200,2017-11-07T03:19:49.557170,2017-11-07T08:55:10Z,GRD_HD,2017-11-07T03:19:24.559053,2017-11-07T03:19:49.557170,62.0138,-145.736,61.037575,-147.752869,61.463528,-143.087143,62.517975,-148.473831,62.953033,-143.579834,NaN,Ascending,926.41 MB,0,,,0,
S1B_IW_GRDH_1SDV_20171107T031855_20171107T031924_008170_00E708_2316,SENTINEL-1B,SENTINEL-1 C-SAR,IW,8170,94,94,194,2017-11-07T03:19:24.557554,2017-11-07T09:10:55Z,GRD_HD,2017-11-07T03:18:55.544239,2017-11-07T03:19:24.557554,60.4062,-145.1113,59.314037,-146.996765,59.731766,-142.570282,61.037495,-147.752731,61.463322,-143.088684,NaN,Ascending,1013.97 MB,0,,,0,
S1A_IW_GRDH_1SDV_20171105T174913_20171105T174942_019133_0205FF_3F1E,SENTINEL-1A,SENTINEL-1 C-SAR,IW,19133,161,161,360,2017-11-05T17:49:42.719298,2017-11-06T05:15:15Z,GRD_HD,2017-11-05T17:49:13.699484,2017-11-05T17:49:42.719298,69.3451,-167.9676,69.909264,-164.157242,70.428902,-170.707764,68.215973,-165.506638,68.709259,-171.576141,NaN,Descending,892.80 MB,0,,,0,
S1A_IW_GRDH_1SDV_20171105T161229_20171105T161251_019132_0205F6_DCE6,SENTINEL-1A,SENTINEL-1 C-SAR,IW,19132,160,160,384,2017-11-05T16:12:51.892613,2017-11-06T03:04:10Z,GRD_HD,2017-11-05T16:12:29.737139,2017-11-05T16:12:51.892613,62.4168,-146.9192,62.835747,-144.195221,63.271812,-149.125595,61.524254,-144.845917,61.951878,-149.568192,NaN,Descending,771.81 MB,0,,,0,
S1A_IW_GRDH_1SDV_20171105T161204_20171105T161229_019132_0205F6_CE43,SENTINEL-1A,SENTINEL-1 C-SAR,IW,19132,160,160,379,2017-11-05T16:12:29.735637,2017-11-06T03:23:07Z,GRD_HD,2017-11-05T16:12:04.737331,2017-11-05T16:12:29.735637,63.817,-146.3103,64.311501,-143.391479,64.759407,-148.584457,62.835838,-144.195175,63.272038,-149.127518,NaN,Descending,930.79 MB,0,,,0,
S1A_IW_GRDH_1SDV_20171105T161139_20171105T161204_019132_0205F6_3E3F,SENTINEL-1A,SENTINEL-1 C-SAR,IW,19132,160,160,374,2017-11-05T16:12:04.735829,2017-11-06T03:18:38Z,GRD_HD,2017-11-05T16:11:39.737523,2017-11-05T16:12:04.735829,65.2981,-145.5967,65.781456,-142.493195,66.24424,-147.980408,64.311584,-143.391434,64.759621,-148.586288,NaN,Descending,913.82 MB,0,,,0,
S1A_IW_GRDH_1SDV_20171105T161114_20171105T161139_019132_0205F6_8DAC,SENTINEL-1A,SENTINEL-1 C-SAR,IW,19132,160,160,369,2017-11-05T16:11:39.736012,2017-11-06T03:31:36Z,GRD_HD,2017-11-05T16:11:14.737709,2017-11-05T16:11:39.736012,66.777,-144.8241,67.250313,-141.537415,67.729607,-147.3582,65.78154,-142.493149,66.244545,-147.983658,NaN,Descending,894.21 MB,0,,,0,
S1A_IW_GRDH_1SDV_20171105T161049_20171105T161114_019132_0205F6_2E6C,SENTINEL-1A,SENTINEL-1 C-SAR,IW,19132,160,160,364,2017-11-05T16:11:14.736208,2017-11-06T03:38:04Z,GRD_HD,2017-11-05T16:10:49.737905,2017-11-05T16:11:14.736208,68.255,-143.9994,68.71611,-140.495697,69.214294,-146.694244,67.250404,-141.537338,67.729813,-147.360016,NaN,Descending,929.36 MB,0,,,0,
S1A_IW_GRDH_1SDV_20171105T161020_20171105T161049_019132_0205F6_1AC5,SENTINEL-1A,SENTINEL-1 C-SAR,IW,19132,160,160,359,2017-11-05T16:10:49.736403,2017-11-06T03:29:08Z,GRD_HD,2017-11-05T16:10:20.693859,2017-11-05T16:10:49.736403,69.8468,-142.9787,70.404053,-139.049118,70.931969,-145.752548,68.716202,-140.495636,69.214485,-146.695938,NaN,Descending,955.50 MB,0,,,0,
S1B_IW_GRDH_1SDV_20171105T033754_20171105T033819_008141_00E632_85E8,SENTINEL-1B,SENTINEL-1 C-SAR,IW,8141,65,65,225,2017-11-05T03:38:19.092049,2017-11-05T10:50:16Z,GRD_HD,2017-11-05T03:37:54.093958,2017-11-05T03:38:19.092049,69.2343,-153.5638,68.224693,-156.095612,68.717834,-150.007843,69.68087,-157.276474,70.197563,-150.777878,NaN,Ascending,845.37 MB,0,,,0,
S1B_IW_GRDH_1SDV_20171105T033729_20171105T033754_008141_00E632_16BA,SENTINEL-1B,SENTINEL-1 C-SAR,IW,8141,65,65,220,2017-11-05T03:37:54.092455,2017-11-05T10:45:18Z,GRD_HD,2017-11-05T03:37:29.094363,2017-11-05T03:37:54.092455,67.7602,-152.6571,66.758057,-155.081604,67.23307,-149.35611,68.224609,-156.09552,68.717621,-150.00972,NaN,Ascending,921.74 MB,0,,,0,
S1B_IW_GRDH_1SDV_20171105T033704_20171105T033729_008141_00E632_C926,SENTINEL-1B,SENTINEL-1 C-SAR,IW,8141,65,65,215,2017-11-05T03:37:29.092865,2017-11-05T10:57:50Z,GRD_HD,2017-11-05T03:37:04.094773,2017-11-05T03:37:29.092865,66.2819,-151.8509,65.288559,-154.148148,65.747719,-148.742935,66.757973,-155.081528,67.232849,-149.358109,NaN,Ascending,915.67 MB,0,,,0,
S1B_IW_GRDH_1SDV_20171105T033639_20171105T033704_008141_00E632_E723,SENTINEL-1B,SENTINEL-1 C-SAR,IW,8141,65,65,210,2017-11-05T03:37:04.093272,2017-11-05T10:42:56Z,GRD_HD,2017-11-05T03:36:39.093678,2017-11-05T03:37:04.093272,64.8011,-151.1112,63.814167,-153.304703,64.260315,-148.183487,65.288475,-154.148102,65.747513,-148.744614,NaN,Ascending,908.72 MB,0,,,0,
S1B_IW_GRDH_1SDV_20171105T033614_20171105T033639_008141_00E632_D904,SENTINEL-1B,SENTINEL-1 C-SAR,IW,8141,65,65,205,2017-11-05T03:36:39.092175,2017-11-05T10:53:29Z,GRD_HD,2017-11-05T03:36:14.094083,2017-11-05T03:36:39.092175,63.3186,-150.4225,62.338985,-152.506577,62.773357,-147.638565,63.814079,-153.304657,64.260094,-148.185287,NaN,Ascending,942.41 MB,0,,,0,
S1B_IW_GRDH_1SDV_20171105T033549_20171105T033614_008141_00E632_3D7A,SENTINEL-1B,SENTINEL-1 C-SAR,IW,8141,65,65,200,2017-11-05T03:36:14.092582,2017-11-05T10:44:37Z,GRD_HD,2017-11-05T03:35:49.094490,2017-11-05T03:36:14.092582,61.8332,-149.7948,60.856133,-151.810532,61.282063,-147.170776,62.338894,-152.506561,62.773129,-147.640488,NaN,Ascending,951.74 MB,0,,,0,
S1B_IW_GRDH_1SDV_20171105T033520_20171105T033549_008141_00E632_E2F9,SENTINEL-1B,SENTINEL-1 C-SAR,IW,8141,65,65,194,2017-11-05T03:35:49.092989,2017-11-05T10:58:40Z,GRD_HD,2017-11-05T03:35:20.393395Z,2017-11-05T03:35:52.792961Z,60.1918,-149.3376,60.9663,-151.9769,59.0374,-151.1154,61.3154,-147.4251,59.3722,-146.8224,NaN,Ascending,994.19 MB,0,,,0,
S1A_IW_GRDH_1SDV_20171103T162916_20171103T162941_019103_02051D_8D40,SENTINEL-1A,SENTINEL-1 C-SAR,IW,19103,131,131,388,2017-11-03T16:29:41.485738,2017-11-03T20:56:26Z,GRD_HD,2017-11-03T16:29:16.487069,2017-11-03T16:29:41.485738,61.1872,-151.5138,61.692814,-148.833633,62.126091,-153.624039,60.21199,-149.535812,60.6366,-154.109589,NaN,Descending,953.75 MB,0,,,0,
S1A_IW_GRDH_1SDV_20171103T162851_20171103T162916_019103_02051D_B42A,SENTINEL-1A,SENTINEL-1 C-SAR,IW,19103,131,131,383,2017-11-03T16:29:16.485569,2017-11-03T21:07:44Z,GRD_HD,2017-11-03T16:28:51.486899,2017-11-03T16:29:16.485569,62.6741,-150.9128,63.174145,-148.106796,63.616776,-153.140488,61.692905,-148.833603,62.126301,-153.625717,NaN,Descending,966.77 MB,0,,,0,
S1A_IW_GRDH_1SDV_20171103T162826_20171103T162851_019103_02051D_990B,SENTINEL-1A,SENTINEL-1 C-SAR,IW,19103,131,131,378,2017-11-03T16:28:51.485399,2017-11-03T20:52:15Z,GRD_HD,2017-11-03T16:28:26.486730,2017-11-03T16:28:51.485399,64.1577,-150.2487,64.645279,-147.250153,65.101692,-152.55513,63.174232,-148.10675,63.616974,-153.142059,NaN,Descending,931.24 MB,0,,,0,
S1A_IW_GRDH_1SDV_20171103T162801_20171103T162826_019103_02051D_D7CB,SENTINEL-1A,SENTINEL-1 C-SAR,IW,19103,131,131,373,2017-11-03T16:28:26.485229,2017-11-03T20:45:44Z,GRD_HD,2017-11-03T16:28:01.486560,2017-11-03T16:28:26.485229,65.6375,-149.5133,66.116486,-146.352753,66.5877,-151.962967,64.64537,-147.250092,65.101906,-152.556976,NaN,Descending,931.81 MB,0,,,0,
S1A_IW_GRDH_1SDV_20171103T162736_20171103T162801_019103_02051D_F328,SENTINEL-1A,SENTINEL-1 C-SAR,IW,19103,131,131,368,2017-11-03T16:28:01.485058,2017-11-03T20:42:42Z,GRD_HD,2017-11-03T16:27:36.486389,2017-11-03T16:28:01.485058,67.1174,-148.7427,67.585945,-145.390015,68.073753,-151.345215,66.116577,-146.352707,66.587906,-151.964706,NaN,Descending,904.79 MB,0,,,0,
S1A_IW_GRDH_1SDV_20171103T162711_20171103T162736_019103_02051D_540A,SENTINEL-1A,SENTINEL-1 C-SAR,IW,19103,131,131,363,2017-11-03T16:27:36.484889,2017-11-03T20:45:31Z,GRD_HD,2017-11-03T16:27:11.486220,2017-11-03T16:27:36.484889,68.5951,-147.9031,69.049545,-144.31134,69.557556,-150.659088,67.586037,-145.389984,68.073959,-151.347092,NaN,Descending,941.96 MB,0,,,0,
S1A_IW_GRDH_1SDV_20171103T162642_20171103T162711_019103_02051D_18A8,SENTINEL-1A,SENTINEL-1 C-SAR,IW,19103,131,131,357,2017-11-03T16:27:11.484718,2017-11-03T20:53:56Z,GRD_HD,2017-11-03T16:26:42.472212,2017-11-03T16:27:11.484718,70.1844,-146.8491,70.733093,-142.818039,71.272545,-149.690765,69.049637,-144.311264,69.557747,-150.660812,NaN,Descending,981.67 MB,0,,,0,
S1B_IW_GRDH_1SDV_20171103T035421_20171103T035446_008112_00E54B_A799,SENTINEL-1B,SENTINEL-1 C-SAR,IW,8112,36,36,225,2017-11-03T03:54:46.737422,2017-11-03T19:27:10Z,GRD_HD,2017-11-03T03:54:21.739035,2017-11-03T03:54:46.737422,69.2389,-157.6976,68.227684,-160.242233,68.723221,-154.13324,69.684402,-161.418411,70.203346,-154.897308,NaN,Ascending,850.86 MB,0,,,0,
S1B_IW_GRDH_1SDV_20171103T035356_20171103T035421_008112_00E54B_4763,SENTINEL-1B,SENTINEL-1 C-SAR,IW,8112,36,36,220,2017-11-03T03:54:21.737534,2017-11-04T03:46:30Z,GRD_HD,2017-11-03T03:53:56.739148,2017-11-03T03:54:21.737534,67.7644,-156.7957,66.760597,-159.231812,67.238083,-153.486847,68.227592,-160.242157,68.723015,-154.135147,NaN,Ascending,919.54 MB,0,,,0,
S1B_IW_GRDH_1SDV_20171103T035331_20171103T035356_008112_00E54B_65E2,SENTINEL-1B,SENTINEL-1 C-SAR,IW,8112,36,36,215,2017-11-03T03:53:56.737646,2017-11-03T11:19:59Z,GRD_HD,2017-11-03T03:53:31.739259,2017-11-03T03:53:56.737646,66.2858,-155.9917,65.291016,-158.298309,65.752632,-152.874374,66.760506,-159.23175,67.237877,-153.488632,NaN,Ascending,922.21 MB,0,,,0,
S1B_IW_GRDH_1SDV_20171103T035306_20171103T035331_008112_00E54B_B3CF,SENTINEL-1B,SENTINEL-1 C-SAR,IW,8112,36,36,210,2017-11-03T03:53:31.737756,2017-11-04T03:55:46Z,GRD_HD,2017-11-03T03:53:06.739369,2017-11-03T03:53:31.737756,64.8053,-155.2474,63.817673,-157.444946,64.265854,-152.306152,65.290924,-158.298264,65.752411,-152.876282,NaN,Ascending,926.76 MB,0,,,0,
S1B_IW_GRDH_1SDV_20171103T035241_20171103T035306_008112_00E54B_612E,SENTINEL-1B,SENTINEL-1 C-SAR,IW,8112,36,36,205,2017-11-03T03:53:06.737870,2017-11-04T04:26:04Z,GRD_HD,2017-11-03T03:52:41.739483,2017-11-03T03:53:06.737870,63.3227,-154.5609,62.341068,-156.659363,62.777889,-151.775131,63.817585,-157.444901,64.26564,-152.307953,NaN,Ascending,934.30 MB,0,,,0,
S1B_IW_GRDH_1SDV_20171103T035216_20171103T035241_008112_00E54B_7702,SENTINEL-1B,SENTINEL-1 C-SAR,IW,8112,36,36,200,2017-11-03T03:52:41.737982,2017-11-04T04:03:49Z,GRD_HD,2017-11-03T03:52:16.739595,2017-11-03T03:52:41.737982,61.8381,-153.9225,60.861782,-155.929947,61.288956,-151.273987,62.340981,-156.659317,62.777676,-151.77684,NaN,Ascending,965.37 MB,0,,,0,
S1B_IW_GRDH_1SDV_20171103T035151_20171103T035216_008112_00E54B_C332,SENTINEL-1B,SENTINEL-1 C-SAR,IW,8112,36,36,195,2017-11-03T03:52:16.738094,2017-11-04T03:55:05Z,GRD_HD,2017-11-03T03:51:51.739707,2017-11-03T03:52:16.738094,60.3511,-153.3332,59.378201,-155.265884,59.797802,-150.815933,60.861694,-155.929901,61.288731,-151.275803,NaN,Ascending,919.30 MB,0,,,0,
S1A_IW_GRDH_1SDV_20171102T172711_20171102T172739_019089_0204A7_6C8E,SENTINEL-1A,SENTINEL-1 C-SAR,IW,19089,117,117,392,2017-11-02T17:27:39.289930,2017-11-03T06:22:36Z,GRD_HD,2017-11-02T17:27:11.960617,2017-11-02T17:27:39.289930,59.9598,-166.3883,60.541759,-163.798218,60.965187,-168.384521,58.920177,-164.519302,59.335587,-168.889297,NaN,Descending,794.69 MB,0,,,0,
S1A_IW_GRDH_1SDV_20171102T172646_20171102T172711_019089_0204A7_6A17,SENTINEL-1A,SENTINEL-1 C-SAR,IW,19089,117,117,387,2017-11-02T17:27:11.959114,2017-11-03T06:03:47Z,GRD_HD,2017-11-02T17:26:46.961675,2017-11-02T17:27:11.959114,61.5164,-165.7794,62.022243,-163.086502,62.454712,-167.894852,60.541847,-163.798172,60.965397,-168.386124,NaN,Descending,814.44 MB,0,,,0,
S1A_IW_GRDH_1SDV_20171102T172621_20171102T172646_019089_0204A7_348C,SENTINEL-1A,SENTINEL-1 C-SAR,IW,19089,117,117,382,2017-11-02T17:26:46.960172,2017-11-03T06:29:22Z,GRD_HD,2017-11-02T17:26:21.961231,2017-11-02T17:26:46.960172,63.0016,-165.1542,63.499714,-162.316071,63.943035,-167.371719,62.022331,-163.086456,62.454926,-167.89653,NaN,Descending,808.66 MB,0,,,0,
S1A_IW_GRDH_1SDV_20171102T172556_20171102T172621_019089_0204A7_9A44,SENTINEL-1A,SENTINEL-1 C-SAR,IW,19089,117,117,377,2017-11-02T17:26:21.959732,2017-11-03T06:39:16Z,GRD_HD,2017-11-02T17:25:56.960791,2017-11-02T17:26:21.959732,64.4853,-164.4851,64.975044,-161.490082,65.43084,-166.822571,63.499802,-162.31601,63.943249,-167.373505,NaN,Descending,833.72 MB,0,,,0,
S1A_IW_GRDH_1SDV_20171102T172531_20171102T172556_019089_0204A7_57E5,SENTINEL-1A,SENTINEL-1 C-SAR,IW,19089,117,117,372,2017-11-02T17:25:56.959288,2017-11-03T06:13:30Z,GRD_HD,2017-11-02T17:25:31.961849,2017-11-02T17:25:56.959288,65.9664,-163.7556,66.444588,-160.567261,66.915932,-166.210724,64.975136,-161.490021,65.431046,-166.824234,NaN,Descending,852.80 MB,0,,,0,
S1A_IW_GRDH_1SDV_20171102T172506_20171102T172531_019089_0204A7_571D,SENTINEL-1A,SENTINEL-1 C-SAR,IW,19089,117,117,367,2017-11-02T17:25:31.960346,2017-11-03T06:23:17Z,GRD_HD,2017-11-02T17:25:06.961405,2017-11-02T17:25:31.960346,67.4452,-162.964,67.912964,-159.581558,68.401535,-165.577454,66.444679,-160.5672,66.916138,-166.212494,NaN,Descending,876.06 MB,0,,,0,
S1A_IW_GRDH_1SDV_20171102T172441_20171102T172506_019089_0204A7_54EB,SENTINEL-1A,SENTINEL-1 C-SAR,IW,19089,117,117,362,2017-11-02T17:25:06.959905,2017-11-03T05:52:16Z,GRD_HD,2017-11-02T17:24:41.960964,2017-11-02T17:25:06.959905,68.921,-162.0878,69.372192,-158.444229,69.882919,-164.84079,67.913048,-159.581497,68.401741,-165.57933,NaN,Descending,866.43 MB,0,,,0,
S1A_IW_GRDH_1SDV_20171102T172412_20171102T172441_019089_0204A7_731B,SENTINEL-1A,SENTINEL-1 C-SAR,IW,19089,117,117,356,2017-11-02T17:24:41.959462,2017-11-03T06:22:49Z,GRD_HD,2017-11-02T17:24:12.948438,2017-11-02T17:24:41.959462,70.5095,-161.0105,71.058167,-156.954376,71.599731,-163.889908,69.372276,-158.444153,69.883118,-164.842545,NaN,Descending,921.48 MB,0,,,0,
S1A_IW_GRDH_1SDV_20171102T154821_20171102T154846_019088_02049D_9ED4,SENTINEL-1A,SENTINEL-1 C-SAR,IW,19088,116,116,391,2017-11-02T15:48:46.277953,2017-11-03T05:42:08Z,GRD_HD,2017-11-02T15:48:21.542048,2017-11-02T15:48:46.277953,60.3909,-141.574,60.899635,-139.02739,61.321865,-143.65976,59.423908,-139.612961,59.841419,-144.043869,NaN,Descending,894.21 MB,0,,,0,
S1A_IW_GRDH_1SDV_20171102T154756_20171102T154821_019088_02049D_44F2,SENTINEL-1A,SENTINEL-1 C-SAR,IW,19088,116,116,386,2017-11-02T15:48:21.540556,2017-11-03T05:11:48Z,GRD_HD,2017-11-02T15:47:56.541916,2017-11-02T15:48:21.540556,61.8714,-141.0018,62.373898,-138.252426,62.807411,-143.112457,60.899727,-139.027374,61.32209,-143.661606,NaN,Descending,952.59 MB,0,,,0,
S1A_IW_GRDH_1SDV_20171102T154731_20171102T154756_019088_02049D_904B,SENTINEL-1A,SENTINEL-1 C-SAR,IW,19088,116,116,381,2017-11-02T15:47:56.540415,2017-11-03T04:21:12Z,GRD_HD,2017-11-02T15:47:31.541775,2017-11-02T15:47:56.540415,63.3537,-140.3395,63.850433,-137.466507,64.295258,-142.580109,62.373989,-138.25238,62.807621,-143.114166,NaN,Descending,913.21 MB,0,,,0,
S1A_IW_GRDH_1SDV_20171102T154706_20171102T154731_019088_02049D_1925,SENTINEL-1A,SENTINEL-1 C-SAR,IW,19088,116,116,376,2017-11-02T15:47:31.540274,2017-11-03T05:37:05Z,GRD_HD,2017-11-02T15:47:06.541634,2017-11-02T15:47:31.540274,64.8366,-139.6561,65.324539,-136.620636,65.782448,-142.018646,63.850525,-137.466476,64.295471,-142.58194,NaN,Descending,915.98 MB,0,,,0,
S1A_IW_GRDH_1SDV_20171102T154641_20171102T154706_019088_02049D_2797,SENTINEL-1A,SENTINEL-1 C-SAR,IW,19088,116,116,371,2017-11-02T15:47:06.540132,2017-11-03T05:12:53Z,GRD_HD,2017-11-02T15:46:41.541492,2017-11-02T15:47:06.540132,66.3168,-138.9084,66.792679,-135.673172,67.266922,-141.39119,65.324623,-136.620575,65.782669,-142.020554,NaN,Descending,910.52 MB,0,,,0,
S1A_IW_GRDH_1SDV_20171102T154616_20171102T154641_019088_02049D_22AF,SENTINEL-1A,SENTINEL-1 C-SAR,IW,19088,116,116,366,2017-11-02T15:46:41.539991,2017-11-03T05:14:38Z,GRD_HD,2017-11-02T15:46:16.541351,2017-11-02T15:46:41.539991,67.7934,-138.0797,68.256302,-134.628128,68.749832,-140.708282,66.792763,-135.673111,67.267113,-141.392761,NaN,Descending,892.85 MB,0,,,0,
S1A_IW_GRDH_1SDV_20171102T154547_20171102T154616_019088_02049D_FA5D,SENTINEL-1A,SENTINEL-1 C-SAR,IW,19088,116,116,360,2017-11-02T15:46:16.539848,2017-11-03T05:28:39Z,GRD_HD,2017-11-02T15:45:47.510140,2017-11-02T15:46:16.539848,69.3857,-137.0892,69.949142,-133.265381,70.46962,-139.830322,68.256386,-134.628067,68.750046,-140.71019,NaN,Descending,931.67 MB,0,,,0,
S1A_IW_GRDH_1SDV_20171101T164333_20171101T164401_019074_020431_3137,SENTINEL-1A,SENTINEL-1 C-SAR,IW,19074,102,102,362,2017-11-01T16:44:01.585613,2017-11-02T09:30:57Z,GRD_HD,2017-11-01T16:43:33.211610,2017-11-01T16:44:01.585613,68.8372,-151.885,69.390427,-148.197968,69.89489,-154.523895,67.73632,-149.503326,68.215317,-155.385086,NaN,Descending,942.17 MB,0,,,0,
S1A_IW_GRDH_1SDV_20171101T164304_20171101T164333_019074_020431_45C9,SENTINEL-1A,SENTINEL-1 C-SAR,IW,19074,102,102,356,2017-11-01T16:43:33.210107,2017-11-02T09:23:27Z,GRD_HD,2017-11-01T16:43:04.191616,2017-11-01T16:43:33.210107,70.5242,-150.73,71.077095,-146.710693,71.61203,-153.570267,69.390511,-148.197891,69.895088,-154.525635,NaN,Descending,889.47 MB,0,,,0,
S1A_IW_GRDH_1SDV_20171031T174156_20171031T174221_019060_0203CA_EB34,SENTINEL-1A,SENTINEL-1 C-SAR,IW,19060,88,88,371,2017-10-31T17:42:21.228539,2017-11-01T18:06:59Z,GRD_HD,2017-10-31T17:41:56.230281,2017-10-31T17:42:21.228539,66.1545,-167.7633,66.631783,-164.556442,67.104889,-170.235077,65.162163,-165.484146,65.619728,-170.848923,NaN,Descending,794.92 MB,0,,,0,
S1A_IW_GRDH_1SDV_20171031T174131_20171031T174156_019060_0203CA_1FAB,SENTINEL-1A,SENTINEL-1 C-SAR,IW,19060,88,88,366,2017-10-31T17:41:56.228779,2017-11-01T18:45:45Z,GRD_HD,2017-10-31T17:41:31.230520,2017-10-31T17:41:56.228779,67.6327,-166.9578,68.098,-163.542679,68.589287,-169.57869,66.631874,-164.556396,67.105095,-170.236847,NaN,Descending,755.86 MB,0,,,0,
S1A_IW_GRDH_1SDV_20171031T174102_20171031T174131_019060_0203CA_C3A4,SENTINEL-1A,SENTINEL-1 C-SAR,IW,19060,88,88,361,2017-10-31T17:41:31.229019,2017-11-01T18:14:19Z,GRD_HD,2017-10-31T17:41:02.205274,2017-10-31T17:41:31.229019,69.2262,-165.9898,69.791557,-162.199219,70.309181,-168.712875,68.098083,-163.542618,68.589493,-169.580566,NaN,Descending,904.53 MB,0,,,0,
S1A_IW_GRDH_1SDV_20171030T170230_20171030T170255_019045_020355_11D1,SENTINEL-1A,SENTINEL-1 C-SAR,IW,19045,73,73,392,2017-10-30T17:02:55.414930,2017-11-01T01:30:17Z,GRD_HD,2017-10-30T17:02:30.416540,2017-10-30T17:02:55.414930,60.0575,-160.1745,60.567616,-157.58847,60.995201,-162.21994,59.084576,-158.251907,59.504677,-162.68251,NaN,Descending,962.79 MB,0,,,0,
S1A_IW_GRDH_1SDV_20171030T170205_20171030T170230_019045_020355_FCB9,SENTINEL-1A,SENTINEL-1 C-SAR,IW,19045,73,73,387,2017-10-30T17:02:30.415039,2017-11-01T01:27:26Z,GRD_HD,2017-10-30T17:02:05.416648,2017-10-30T17:02:30.415039,61.5445,-159.59,62.047684,-156.871674,62.484554,-161.727798,60.567707,-157.58844,60.995426,-162.221741,NaN,Descending,983.80 MB,0,,,0,
S1A_IW_GRDH_1SDV_20171030T170140_20171030T170205_019045_020355_1595,SENTINEL-1A,SENTINEL-1 C-SAR,IW,19045,73,73,382,2017-10-30T17:02:05.415147,2017-11-01T01:27:40Z,GRD_HD,2017-10-30T17:01:40.416756,2017-10-30T17:02:05.415147,63.0296,-158.9617,63.524834,-156.097656,63.97274,-161.203796,62.047771,-156.871628,62.484768,-161.729492,NaN,Descending,983.71 MB,0,,,0,
S1A_IW_GRDH_1SDV_20171030T170115_20171030T170140_019045_020355_C659,SENTINEL-1A,SENTINEL-1 C-SAR,IW,19045,73,73,377,2017-10-30T17:01:40.415263,2017-11-01T01:37:30Z,GRD_HD,2017-10-30T17:01:15.416871,2017-10-30T17:01:40.415263,64.5127,-158.2863,64.998985,-155.259705,65.459877,-160.64563,63.524921,-156.09761,63.972954,-161.205582,NaN,Descending,984.01 MB,0,,,0,
S1A_IW_GRDH_1SDV_20170930T161139_20170930T161204_018607_01F5ED_3331,SENTINEL-1A,SENTINEL-1 C-SAR,IW,18607,160,160,374,2017-09-30T16:12:04Z,2017-10-02T10:54:02Z,GRD_HD,2017-09-30T16:11:38Z,2017-09-30T16:12:05Z,65.29,-145.591,65.8338,-142.4781,66.2947,-147.9485,64.2454,-143.4215,64.6911,-148.5738,NaN,Descending,918.70 MB,-1,0,0,-1,0
S1A_IW_GRDH_1SDV_20170930T161114_20170930T161139_018607_01F5ED_D41E,SENTINEL-1A,SENTINEL-1 C-SAR,IW,18607,160,160,369,2017-09-30T16:11:39Z,2017-10-02T07:36:51Z,GRD_HD,2017-09-30T16:11:14Z,2017-09-30T16:11:39Z,66.7769,-144.822,67.2501,-141.5355,67.7295,-147.3557,65.7814,-142.4914,66.2445,-147.9814,NaN,Descending,901.45 MB,-1,0,0,-1,0
S1A_IW_GRDH_1SDV_20170930T161049_20170930T161114_018607_01F5ED_D8F8,SENTINEL-1A,SENTINEL-1 C-SAR,IW,18607,160,160,364,2017-09-30T16:11:14Z,2017-10-02T08:09:19Z,GRD_HD,2017-09-30T16:10:49Z,2017-09-30T16:11:14Z,68.2549,-143.9971,68.7159,-140.4937,69.2142,-146.6916,67.2502,-141.5354,67.7297,-147.3575,NaN,Descending,930.38 MB,-1,0,0,-1,0
S1A_IW_GRDH_1SDV_20170930T161020_20170930T161049_018607_01F5ED_2BC0,SENTINEL-1A,SENTINEL-1 C-SAR,IW,18607,160,160,359,2017-09-30T16:10:49Z,2017-10-02T07:34:04Z,GRD_HD,2017-09-30T16:10:20Z,2017-09-30T16:10:49Z,69.8457,-142.9769,70.4021,-139.0484,70.9301,-145.7506,68.716,-140.4936,69.2144,-146.6933,NaN,Descending,994.48 MB,-1,0,0,-1,0
S1B_IW_GRDH_1SDV_20170930T033753_20170930T033818_007616_00D72D_867C,SENTINEL-1B,SENTINEL-1 C-SAR,IW,7616,65,65,225,2017-09-30T03:38:18Z,2017-10-01T01:28:23Z,GRD_HD,2017-09-30T03:37:53Z,2017-09-30T03:38:18Z,69.2342,-153.5674,68.2246,-156.0986,68.7178,-150.0117,69.6807,-157.2798,70.1975,-150.7821,NaN,Ascending,840.01 MB,-1,0,0,-1,0
S1B_IW_GRDH_1SDV_20170930T033728_20170930T033753_007616_00D72D_534B,SENTINEL-1B,SENTINEL-1 C-SAR,IW,7616,65,65,220,2017-09-30T03:37:53Z,2017-10-01T01:12:31Z,GRD_HD,2017-09-30T03:37:28Z,2017-09-30T03:37:53Z,67.7602,-152.6605,66.758,-155.0846,67.233,-149.3598,68.2245,-156.0985,68.7176,-150.0136,NaN,Ascending,927.60 MB,-1,0,0,-1,0
S1B_IW_GRDH_1SDV_20170930T033703_20170930T033728_007616_00D72D_9816,SENTINEL-1B,SENTINEL-1 C-SAR,IW,7616,65,65,215,2017-09-30T03:37:28Z,2017-10-01T01:10:21Z,GRD_HD,2017-09-30T03:37:03Z,2017-09-30T03:37:28Z,66.2818,-151.8541,65.2884,-154.1509,65.7476,-148.7464,66.7579,-155.0845,67.2328,-149.3619,NaN,Ascending,928.04 MB,-1,0,0,-1,0
S1B_IW_GRDH_1SDV_20170930T033638_20170930T033703_007616_00D72D_9FB8,SENTINEL-1B,SENTINEL-1 C-SAR,IW,7616,65,65,210,2017-09-30T03:37:03Z,2017-10-01T01:11:22Z,GRD_HD,2017-09-30T03:36:38Z,2017-09-30T03:37:03Z,64.801,-151.1142,63.8141,-153.3073,64.2603,-148.1868,65.2883,-154.1508,65.7474,-148.7481,NaN,Ascending,940.98 MB,-1,0,0,-1,0
S1B_IW_GRDH_1SDV_20170930T033613_20170930T033638_007616_00D72D_EA3F,SENTINEL-1B,SENTINEL-1 C-SAR,IW,7616,65,65,205,2017-09-30T03:36:38Z,2017-10-01T01:11:03Z,GRD_HD,2017-09-30T03:36:13Z,2017-09-30T03:36:38Z,63.3185,-150.4254,62.3388,-152.5092,62.7733,-147.6418,63.814,-153.3073,64.2601,-148.1886,NaN,Ascending,963.85 MB,-1,0,0,-1,0
S1B_IW_GRDH_1SDV_20170930T033548_20170930T033613_007616_00D72D_0037,SENTINEL-1B,SENTINEL-1 C-SAR,IW,7616,65,65,200,2017-09-30T03:36:13Z,2017-10-01T01:10:19Z,GRD_HD,2017-09-30T03:35:48Z,2017-09-30T03:36:13Z,61.8331,-149.7975,60.856,-151.8129,61.282,-147.1736,62.3387,-152.5091,62.7731,-147.6435,NaN,Ascending,983.44 MB,-1,0,0,-1,0
S1B_IW_GRDH_1SDV_20170930T033519_20170930T033548_007616_00D72D_FFE4,SENTINEL-1B,SENTINEL-1 C-SAR,IW,7616,65,65,194,2017-09-30T03:35:48Z,2017-10-01T01:18:09Z,GRD_HD,2017-09-30T03:35:20Z,2017-09-30T03:35:52Z,60.1916,-149.3414,60.9661,-151.9806,59.0372,-151.1189,61.3153,-147.4291,59.3721,-146.8261,NaN,Ascending,1004.11 MB,-1,0,0,-1,0
S1A_IW_GRDH_1SDV_20170928T162916_20170928T162941_018578_01F513_32DB,SENTINEL-1A,SENTINEL-1 C-SAR,IW,18578,131,131,388,2017-09-28T16:29:41Z,2017-09-30T22:55:55Z,GRD_HD,2017-09-28T16:29:16Z,2017-09-28T16:29:41Z,61.1869,-151.5118,61.6925,-148.8321,62.1259,-153.6218,60.2117,-149.5341,60.6364,-154.1072,NaN,Descending,982.02 MB,-1,0,0,-1,0
S1A_IW_GRDH_1SDV_20170928T162851_20170928T162916_018578_01F513_F77D,SENTINEL-1A,SENTINEL-1 C-SAR,IW,18578,131,131,383,2017-09-28T16:29:16Z,2017-09-30T23:03:32Z,GRD_HD,2017-09-28T16:28:51Z,2017-09-28T16:29:16Z,62.6738,-150.9106,63.1738,-148.1045,63.6165,-153.1375,61.6926,-148.832,62.1261,-153.6235,NaN,Descending,988.75 MB,-1,0,0,-1,0
S1A_IW_GRDH_1SDV_20170928T162826_20170928T162851_018578_01F513_8422,SENTINEL-1A,SENTINEL-1 C-SAR,IW,18578,131,131,378,2017-09-28T16:28:51Z,2017-09-30T22:59:04Z,GRD_HD,2017-09-28T16:28:26Z,2017-09-28T16:28:51Z,64.1573,-150.2463,64.6449,-147.248,65.1014,-152.5524,63.1739,-148.1045,63.6167,-153.1393,NaN,Descending,958.17 MB,-1,0,0,-1,0
S1A_IW_GRDH_1SDV_20170928T162801_20170928T162826_018578_01F513_8CB1,SENTINEL-1A,SENTINEL-1 C-SAR,IW,18578,131,131,373,2017-09-28T16:28:26Z,2017-09-30T23:00:13Z,GRD_HD,2017-09-28T16:28:01Z,2017-09-28T16:28:26Z,65.6372,-149.5107,66.1161,-146.3504,66.5874,-151.9601,64.645,-147.2479,65.1017,-152.5543,NaN,Descending,966.14 MB,-1,0,0,-1,0
S1A_IW_GRDH_1SDV_20170928T162736_20170928T162801_018578_01F513_E97A,SENTINEL-1A,SENTINEL-1 C-SAR,IW,18578,131,131,368,2017-09-28T16:28:01Z,2017-09-30T22:59:09Z,GRD_HD,2017-09-28T16:27:36Z,2017-09-28T16:28:01Z,67.1171,-148.7399,67.5856,-145.3875,68.0735,-151.3421,66.1162,-146.3504,66.5876,-151.9618,NaN,Descending,928.86 MB,-1,0,0,-1,0
S1A_IW_GRDH_1SDV_20170928T162711_20170928T162736_018578_01F513_5313,SENTINEL-1A,SENTINEL-1 C-SAR,IW,18578,131,131,363,2017-09-28T16:27:36Z,2017-09-30T22:59:03Z,GRD_HD,2017-09-28T16:27:11Z,2017-09-28T16:27:36Z,68.5948,-147.9,69.0492,-144.3086,69.5573,-150.6554,67.5857,-145.3875,68.0737,-151.3437,NaN,Descending,944.01 MB,-1,0,0,-1,0
S1A_IW_GRDH_1SDV_20170928T162642_20170928T162711_018578_01F513_B9A1,SENTINEL-1A,SENTINEL-1 C-SAR,IW,18578,131,131,357,2017-09-28T16:27:11Z,2017-09-30T22:59:01Z,GRD_HD,2017-09-28T16:26:42Z,2017-09-28T16:27:11Z,70.1843,-146.8457,70.7331,-142.8147,71.2727,-149.6868,69.0492,-144.3085,69.5575,-150.6574,NaN,Descending,957.53 MB,-1,0,0,-1,0
S1A_IW_GRDH_1SDV_20170927T172711_20170927T172738_018564_01F4A3_DC38,SENTINEL-1A,SENTINEL-1 C-SAR,IW,18564,117,117,392,2017-09-27T17:27:38Z,2017-09-30T01:03:16Z,GRD_HD,2017-09-27T17:27:11Z,2017-09-27T17:27:38Z,59.9595,-166.3867,60.5415,-163.7969,60.9649,-168.3826,58.9198,-164.5181,59.3352,-168.8875,NaN,Descending,840.23 MB,-1,0,0,-1,0
S1A_IW_GRDH_1SDV_20170927T172646_20170927T172711_018564_01F4A3_2471,SENTINEL-1A,SENTINEL-1 C-SAR,IW,18564,117,117,387,2017-09-27T17:27:11Z,2017-09-30T00:48:09Z,GRD_HD,2017-09-27T17:26:46Z,2017-09-27T17:27:11Z,61.5161,-165.7776,62.022,-163.085,62.4545,-167.8927,60.5416,-163.7968,60.9651,-168.3842,NaN,Descending,829.81 MB,-1,0,0,-1,0
S1A_IW_GRDH_1SDV_20170927T172621_20170927T172646_018564_01F4A3_3D2F,SENTINEL-1A,SENTINEL-1 C-SAR,IW,18564,117,117,382,2017-09-27T17:26:46Z,2017-09-30T00:42:46Z,GRD_HD,2017-09-27T17:26:21Z,2017-09-27T17:26:46Z,63.0014,-165.1523,63.4995,-162.3145,63.9429,-167.3695,62.0221,-163.085,62.4548,-167.8944,NaN,Descending,805.03 MB,-1,0,0,-1,0
S1A_IW_GRDH_1SDV_20170927T172556_20170927T172621_018564_01F4A3_B856,SENTINEL-1A,SENTINEL-1 C-SAR,IW,18564,117,117,377,2017-09-27T17:26:21Z,2017-09-30T00:58:57Z,GRD_HD,2017-09-27T17:25:56Z,2017-09-27T17:26:21Z,64.4851,-164.4832,64.9748,-161.4884,65.4307,-166.8204,63.4996,-162.3144,63.9431,-167.3714,NaN,Descending,819.23 MB,-1,0,0,-1,0
S1A_IW_GRDH_1SDV_20170927T172531_20170927T172556_018564_01F4A3_D6A3,SENTINEL-1A,SENTINEL-1 C-SAR,IW,18564,117,117,372,2017-09-27T17:25:56Z,2017-09-30T00:44:19Z,GRD_HD,2017-09-27T17:25:31Z,2017-09-27T17:25:56Z,65.9662,-163.7535,66.4444,-160.5654,66.9158,-166.2083,64.9749,-161.4883,65.4309,-166.822,NaN,Descending,826.64 MB,-1,0,0,-1,0
S1A_IW_GRDH_1SDV_20170927T172506_20170927T172531_018564_01F4A3_83F6,SENTINEL-1A,SENTINEL-1 C-SAR,IW,18564,117,117,367,2017-09-27T17:25:31Z,2017-09-30T00:59:56Z,GRD_HD,2017-09-27T17:25:06Z,2017-09-27T17:25:31Z,67.4451,-162.9618,67.9128,-159.5795,68.4014,-165.5749,66.4445,-160.5653,66.916,-166.2101,NaN,Descending,854.46 MB,-1,0,0,-1,0
S1A_IW_GRDH_1SDV_20170927T172441_20170927T172506_018564_01F4A3_FA1C,SENTINEL-1A,SENTINEL-1 C-SAR,IW,18564,117,117,362,2017-09-27T17:25:06Z,2017-09-30T01:01:20Z,GRD_HD,2017-09-27T17:24:41Z,2017-09-27T17:25:06Z,68.9208,-162.0854,69.372,-158.442,69.8828,-164.838,67.9129,-159.5795,68.4016,-165.5767,NaN,Descending,855.77 MB,-1,0,0,-1,0
S1A_IW_GRDH_1SDV_20170927T172412_20170927T172441_018564_01F4A3_FB1E,SENTINEL-1A,SENTINEL-1 C-SAR,IW,18564,117,117,356,2017-09-27T17:24:41Z,2017-09-30T00:59:58Z,GRD_HD,2017-09-27T17:24:12Z,2017-09-27T17:24:45Z,70.2898,-161.0064,71.4578,-163.7296,69.5278,-164.7714,70.9728,-156.9683,69.0803,-158.5913,NaN,Descending,882.59 MB,-1,0,0,-1,0
S1A_IW_GRDH_1SDV_20170927T154821_20170927T154845_018563_01F499_620E,SENTINEL-1A,SENTINEL-1 C-SAR,IW,18563,116,116,391,2017-09-27T15:48:45Z,2017-09-29T23:03:16Z,GRD_HD,2017-09-27T15:48:21Z,2017-09-27T15:48:45Z,60.3908,-141.5724,60.8994,-139.026,61.3217,-143.6579,59.4237,-139.6117,59.8413,-144.0422,NaN,Descending,898.07 MB,-1,0,0,-1,0
S1A_IW_GRDH_1SDV_20170927T154756_20170927T154821_018563_01F499_077E,SENTINEL-1A,SENTINEL-1 C-SAR,IW,18563,116,116,386,2017-09-27T15:48:21Z,2017-09-29T22:55:19Z,GRD_HD,2017-09-27T15:47:56Z,2017-09-27T15:48:21Z,61.8713,-141.0001,62.3737,-138.2511,62.8073,-143.1105,60.8995,-139.026,61.3219,-143.6596,NaN,Descending,968.46 MB,-1,0,0,-1,0
S1A_IW_GRDH_1SDV_20170927T154731_20170927T154756_018563_01F499_A1E5,SENTINEL-1A,SENTINEL-1 C-SAR,IW,18563,116,116,381,2017-09-27T15:47:56Z,2017-09-29T22:55:32Z,GRD_HD,2017-09-27T15:47:31Z,2017-09-27T15:47:56Z,63.3536,-140.3377,63.8502,-137.4649,64.2951,-142.5778,62.3738,-138.2511,62.8075,-143.1122,NaN,Descending,947.06 MB,-1,0,0,-1,0
S1A_IW_GRDH_1SDV_20170927T154706_20170927T154731_018563_01F499_6BB3,SENTINEL-1A,SENTINEL-1 C-SAR,IW,18563,116,116,376,2017-09-27T15:47:31Z,2017-09-29T23:01:52Z,GRD_HD,2017-09-27T15:47:06Z,2017-09-27T15:47:31Z,64.8365,-139.6541,65.3243,-136.619,65.7823,-142.0163,63.8503,-137.4649,64.2953,-142.5796,NaN,Descending,938.92 MB,-1,0,0,-1,0
S1A_IW_GRDH_1SDV_20170927T154641_20170927T154706_018563_01F499_8454,SENTINEL-1A,SENTINEL-1 C-SAR,IW,18563,116,116,371,2017-09-27T15:47:06Z,2017-09-29T22:53:24Z,GRD_HD,2017-09-27T15:46:41Z,2017-09-27T15:47:06Z,66.3166,-138.9062,66.7925,-135.6713,67.2668,-141.3883,65.3244,-136.6189,65.7825,-142.0179,NaN,Descending,924.39 MB,-1,0,0,-1,0
S1A_IW_GRDH_1SDV_20170927T154616_20170927T154641_018563_01F499_5B8D,SENTINEL-1A,SENTINEL-1 C-SAR,IW,18563,116,116,366,2017-09-27T15:46:41Z,2017-09-29T22:53:29Z,GRD_HD,2017-09-27T15:46:16Z,2017-09-27T15:46:41Z,67.7932,-138.0774,68.2561,-134.6262,68.7497,-140.7055,66.7926,-135.6712,67.267,-141.3901,NaN,Descending,895.91 MB,-1,0,0,-1,0
S1A_IW_GRDH_1SDV_20170927T154547_20170927T154616_018563_01F499_E95B,SENTINEL-1A,SENTINEL-1 C-SAR,IW,18563,116,116,360,2017-09-27T15:46:16Z,2017-09-29T22:59:59Z,GRD_HD,2017-09-27T15:45:47Z,2017-09-27T15:46:16Z,69.3855,-137.0867,69.9489,-133.2632,70.4695,-139.8272,68.2562,-134.6261,68.7499,-140.7074,NaN,Descending,927.43 MB,-1,0,0,-1,0
S1A_IW_GRDH_1SDV_20170927T022438_20170927T022505_018555_01F45B_BB27,SENTINEL-1A,SENTINEL-1 C-SAR,IW,18555,108,108,226,2017-09-27T02:25:05Z,2017-09-29T07:36:21Z,GRD_HD,2017-09-27T02:24:38Z,2017-09-27T02:25:05Z,69.6717,-135.3786,68.607,-137.9564,69.1126,-131.7032,70.1572,-139.2345,70.6886,-132.5213,NaN,Ascending,865.76 MB,-1,0,0,-1,0
S1A_IW_GRDH_1SDV_20170926T164332_20170926T164401_018549_01F42F_5860,SENTINEL-1A,SENTINEL-1 C-SAR,IW,18549,102,102,362,2017-09-26T16:44:01Z,2017-09-29T18:39:05Z,GRD_HD,2017-09-26T16:43:32Z,2017-09-26T16:44:01Z,68.837,-151.8838,69.3904,-148.197,69.8949,-154.5221,67.7359,-149.5028,68.2149,-155.3837,NaN,Descending,953.44 MB,-1,0,0,-1,0
S1A_IW_GRDH_1SDV_20170926T164303_20170926T164332_018549_01F42F_7E5F,SENTINEL-1A,SENTINEL-1 C-SAR,IW,18549,102,102,356,2017-09-26T16:43:32Z,2017-09-29T08:58:28Z,GRD_HD,2017-09-26T16:43:04Z,2017-09-26T16:43:36Z,70.3031,-150.7152,71.4711,-153.4404,69.5411,-154.4829,70.986,-146.674,69.0935,-148.2984,NaN,Descending,916.01 MB,-1,0,0,-1,0
S1B_IW_GRDH_1SDV_20170926T041056_20170926T041123_007558_00D57D_BC4E,SENTINEL-1B,SENTINEL-1 C-SAR,IW,7558,7,7,226,2017-09-26T04:11:23Z,2017-09-27T22:43:43Z,GRD_HD,2017-09-26T04:10:56Z,2017-09-26T04:11:23Z,69.7787,-162.1844,68.7042,-164.7491,69.2087,-158.4966,70.2749,-166.0586,70.8058,-159.3371,NaN,Ascending,860.59 MB,-1,0,0,-1,0
S1B_IW_GRDH_1SDV_20170926T041031_20170926T041056_007558_00D57D_27F9,SENTINEL-1B,SENTINEL-1 C-SAR,IW,7558,7,7,221,2017-09-26T04:10:56Z,2017-09-27T22:42:30Z,GRD_HD,2017-09-26T04:10:31Z,2017-09-26T04:10:56Z,68.2476,-161.2077,67.2408,-163.6825,67.7253,-157.81,68.7041,-164.7491,69.2085,-158.4983,NaN,Ascending,915.02 MB,-1,0,0,-1,0
S1B_IW_GRDH_1SDV_20170926T041006_20170926T041031_007558_00D57D_49E9,SENTINEL-1B,SENTINEL-1 C-SAR,IW,7558,7,7,216,2017-09-26T04:10:31Z,2017-09-27T22:54:28Z,GRD_HD,2017-09-26T04:10:06Z,2017-09-26T04:10:31Z,66.7706,-160.3685,65.7725,-162.7197,66.2402,-157.1821,67.2407,-163.6825,67.7251,-157.8118,NaN,Ascending,913.04 MB,-1,0,0,-1,0
S1B_IW_GRDH_1SDV_20170926T040941_20170926T041006_007558_00D57D_9591,SENTINEL-1B,SENTINEL-1 C-SAR,IW,7558,7,7,211,2017-09-26T04:10:06Z,2017-09-27T22:54:02Z,GRD_HD,2017-09-26T04:09:41Z,2017-09-26T04:10:06Z,65.2909,-159.6032,64.3003,-161.841,64.7539,-156.6004,65.7724,-162.7196,66.24,-157.184,NaN,Ascending,932.73 MB,-1,0,0,-1,0
S1B_IW_GRDH_1SDV_20170926T040916_20170926T040941_007558_00D57D_09D5,SENTINEL-1B,SENTINEL-1 C-SAR,IW,7558,7,7,206,2017-09-26T04:09:41Z,2017-09-27T22:49:35Z,GRD_HD,2017-09-26T04:09:16Z,2017-09-26T04:09:41Z,63.8088,-158.9001,62.8244,-161.0372,63.2661,-156.061,64.3002,-161.841,64.7537,-156.602,NaN,Ascending,965.54 MB,-1,0,0,-1,0
S1B_IW_GRDH_1SDV_20170926T040851_20170926T040916_007558_00D57D_E74D,SENTINEL-1B,SENTINEL-1 C-SAR,IW,7558,7,7,201,2017-09-26T04:09:16Z,2017-09-27T22:41:19Z,GRD_HD,2017-09-26T04:08:51Z,2017-09-26T04:09:16Z,62.3245,-158.2509,61.3454,-160.2952,61.777,-155.5561,62.8243,-161.0371,63.2658,-156.0628,NaN,Ascending,976.53 MB,-1,0,0,-1,0
S1B_IW_GRDH_1SDV_20170926T040826_20170926T040851_007558_00D57D_EB07,SENTINEL-1B,SENTINEL-1 C-SAR,IW,7558,7,7,196,2017-09-26T04:08:51Z,2017-09-27T22:39:19Z,GRD_HD,2017-09-26T04:08:26Z,2017-09-26T04:08:51Z,60.8385,-157.6425,59.8645,-159.5981,60.2874,-155.0723,61.3453,-160.2952,61.7768,-155.5577,NaN,Ascending,959.31 MB,-1,0,0,-1,0
S1A_IW_GRDH_1SDV_20170925T174155_20170925T174220_018535_01F3CA_129F,SENTINEL-1A,SENTINEL-1 C-SAR,IW,18535,88,88,371,2017-09-25T17:42:20Z,2017-09-28T11:45:07Z,GRD_HD,2017-09-25T17:41:55Z,2017-09-25T17:42:20Z,66.1544,-167.7633,66.6317,-164.5568,67.1048,-170.2347,65.1621,-165.4844,65.6196,-170.8485,NaN,Descending,835.05 MB,-1,0,0,-1,0
S1A_IW_GRDH_1SDV_20170925T174130_20170925T174155_018535_01F3CA_5142,SENTINEL-1A,SENTINEL-1 C-SAR,IW,18535,88,88,366,2017-09-25T17:41:55Z,2017-09-28T11:44:22Z,GRD_HD,2017-09-25T17:41:30Z,2017-09-25T17:41:55Z,67.6326,-166.9578,68.098,-163.543,68.5892,-169.5783,66.6318,-164.5567,67.105,-170.2365,NaN,Descending,787.51 MB,-1,0,0,-1,0
S1A_IW_GRDH_1SDV_20170925T174101_20170925T174130_018535_01F3CA_5DFE,SENTINEL-1A,SENTINEL-1 C-SAR,IW,18535,88,88,361,2017-09-25T17:41:30Z,2017-09-28T11:54:05Z,GRD_HD,2017-09-25T17:41:02Z,2017-09-25T17:41:34Z,68.9999,-165.9781,70.1592,-168.5621,68.2267,-169.5096,69.7004,-162.2033,67.8005,-163.6664,NaN,Descending,900.08 MB,-1,0,0,-1,0
S1A_IW_GRDH_1SDV_20170925T024109_20170925T024132_018526_01F383_1039,SENTINEL-1A,SENTINEL-1 C-SAR,IW,18526,79,79,226,2017-09-25T02:41:32Z,2017-09-28T04:54:21Z,GRD_HD,2017-09-25T02:41:09Z,2017-09-25T02:41:32Z,69.7454,-139.5262,68.7664,-142.1654,69.2741,-135.855,70.1435,-143.3464,70.6758,-136.6237,NaN,Ascending,756.54 MB,-1,0,0,-1,0
S1A_IW_GRDH_1SDV_20170925T024044_20170925T024109_018526_01F383_6867,SENTINEL-1A,SENTINEL-1 C-SAR,IW,18526,79,79,221,2017-09-25T02:41:09Z,2017-09-28T04:45:09Z,GRD_HD,2017-09-25T02:40:44Z,2017-09-25T02:41:09Z,68.3109,-138.6062,67.3009,-141.1165,67.7893,-135.1913,68.7663,-142.1653,69.2739,-135.8566,NaN,Ascending,930.54 MB,-1,0,0,-1,0
S1A_IW_GRDH_1SDV_20170925T024019_20170925T024044_018526_01F383_3F29,SENTINEL-1A,SENTINEL-1 C-SAR,IW,18526,79,79,216,2017-09-25T02:40:44Z,2017-09-28T04:44:58Z,GRD_HD,2017-09-25T02:40:19Z,2017-09-25T02:40:44Z,66.8342,-137.763,65.8353,-140.1252,66.3058,-134.5384,67.3008,-141.1164,67.7891,-135.1931,NaN,Ascending,962.21 MB,-1,0,0,-1,0
S1A_IW_GRDH_1SDV_20170925T023954_20170925T024019_018526_01F383_00D6,SENTINEL-1A,SENTINEL-1 C-SAR,IW,18526,79,79,211,2017-09-25T02:40:19Z,2017-09-28T04:33:24Z,GRD_HD,2017-09-25T02:39:54Z,2017-09-25T02:40:19Z,65.356,-136.9785,64.3643,-139.2332,64.8202,-133.9467,65.8352,-140.1251,66.3056,-134.5401,NaN,Ascending,963.28 MB,-1,0,0,-1,0
S1A_IW_GRDH_1SDV_20170925T023929_20170925T023954_018526_01F383_C98E,SENTINEL-1A,SENTINEL-1 C-SAR,IW,18526,79,79,206,2017-09-25T02:39:54Z,2017-09-28T04:46:10Z,GRD_HD,2017-09-25T02:39:29Z,2017-09-25T02:39:54Z,63.8737,-136.2759,62.8872,-138.4396,63.3315,-133.4209,64.3643,-139.2332,64.8199,-133.9485,NaN,Ascending,975.89 MB,-1,0,0,-1,0
S1A_IW_GRDH_1SDV_20170925T023904_20170925T023929_018526_01F383_EF20,SENTINEL-1A,SENTINEL-1 C-SAR,IW,18526,79,79,201,2017-09-25T02:39:29Z,2017-09-28T04:39:22Z,GRD_HD,2017-09-25T02:39:04Z,2017-09-25T02:39:29Z,62.3892,-135.6283,61.4091,-137.6882,61.8429,-132.9091,62.8871,-138.4396,63.3312,-133.4227,NaN,Ascending,961.85 MB,-1,0,0,-1,0
S1A_IW_GRDH_1SDV_20170924T170229_20170924T170254_018520_01F352_C820,SENTINEL-1A,SENTINEL-1 C-SAR,IW,18520,73,73,392,2017-09-24T17:02:54Z,2017-09-26T22:07:49Z,GRD_HD,2017-09-24T17:02:29Z,2017-09-24T17:02:54Z,60.0574,-160.1753,60.5676,-157.5895,60.9951,-162.2204,59.0846,-158.2529,59.5046,-162.6829,NaN,Descending,951.38 MB,-1,0,0,-1,0
S1A_IW_GRDH_1SDV_20170924T170204_20170924T170229_018520_01F352_C7ED,SENTINEL-1A,SENTINEL-1 C-SAR,IW,18520,73,73,387,2017-09-24T17:02:29Z,2017-09-26T22:48:54Z,GRD_HD,2017-09-24T17:02:04Z,2017-09-24T17:02:29Z,61.5445,-159.5908,62.0477,-156.8728,62.4845,-161.7284,60.5677,-157.5895,60.9953,-162.2222,NaN,Descending,985.08 MB,-1,0,0,-1,0
S1A_IW_GRDH_1SDV_20170924T170139_20170924T170204_018520_01F352_779B,SENTINEL-1A,SENTINEL-1 C-SAR,IW,18520,73,73,382,2017-09-24T17:02:04Z,2017-09-26T23:23:10Z,GRD_HD,2017-09-24T17:01:39Z,2017-09-24T17:02:04Z,63.0295,-158.9626,63.5249,-156.0989,63.9727,-161.2045,62.0478,-156.8727,62.4847,-161.7301,NaN,Descending,975.27 MB,-1,0,0,-1,0
S1A_IW_GRDH_1SDV_20170924T170114_20170924T170139_018520_01F352_BA2B,SENTINEL-1A,SENTINEL-1 C-SAR,IW,18520,73,73,377,2017-09-24T17:01:39Z,2017-09-26T22:17:33Z,GRD_HD,2017-09-24T17:01:14Z,2017-09-24T17:01:39Z,64.5127,-158.2872,64.9991,-155.261,65.4599,-160.6463,63.5249,-156.0988,63.9729,-161.2062,NaN,Descending,973.38 MB,-1,0,0,-1,0
S1A_IW_GRDH_1SDV_20170924T170049_20170924T170114_018520_01F352_3FE1,SENTINEL-1A,SENTINEL-1 C-SAR,IW,18520,73,73,372,2017-09-24T17:01:14Z,2017-09-26T21:57:11Z,GRD_HD,2017-09-24T17:00:49Z,2017-09-24T17:01:14Z,65.9939,-157.5581,66.4699,-154.3483,66.9459,-160.0482,64.9992,-155.261,65.4601,-160.648,NaN,Descending,932.61 MB,-1,0,0,-1,0
S1A_IW_GRDH_1SDV_20170924T170024_20170924T170049_018520_01F352_C613,SENTINEL-1A,SENTINEL-1 C-SAR,IW,18520,73,73,367,2017-09-24T17:00:49Z,2017-09-26T22:04:42Z,GRD_HD,2017-09-24T17:00:24Z,2017-09-24T17:00:49Z,67.4737,-156.7765,67.939,-153.3687,68.432,-159.425,66.47,-154.3482,66.9461,-160.05,NaN,Descending,933.17 MB,-1,0,0,-1,0
S1A_IW_GRDH_1SDV_20170924T165959_20170924T170024_018520_01F352_2DD3,SENTINEL-1A,SENTINEL-1 C-SAR,IW,18520,73,73,362,2017-09-24T17:00:24Z,2017-09-27T00:01:55Z,GRD_HD,2017-09-24T16:59:59Z,2017-09-24T17:00:24Z,68.9487,-155.8914,69.3954,-152.2027,69.9119,-158.6637,67.939,-153.3686,68.4323,-159.4269,NaN,Descending,894.19 MB,-1,0,0,-1,0
S1A_IW_GRDH_1SDV_20170924T165930_20170924T165959_018520_01F352_B75F,SENTINEL-1A,SENTINEL-1 C-SAR,IW,18520,73,73,356,2017-09-24T16:59:59Z,2017-09-26T22:02:29Z,GRD_HD,2017-09-24T16:59:31Z,2017-09-24T17:00:03Z,70.3181,-154.8189,71.4862,-157.5458,69.5563,-158.5894,71.0008,-150.7746,69.1084,-152.401,NaN,Descending,944.17 MB,-1,0,0,-1,0
S1B_IW_GRDH_1SDV_20170924T042709_20170924T042736_007529_00D4AB_8752,SENTINEL-1B,SENTINEL-1 C-SAR,IW,7529,153,153,223,2017-09-24T04:27:36Z,2017-09-25T03:24:04Z,GRD_HD,2017-09-24T04:27:09Z,2017-09-24T04:27:36Z,68.8901,-165.7283,67.8213,-168.2135,68.3132,-162.2035,69.3978,-169.4255,69.9129,-162.9836,NaN,Ascending,900.43 MB,-1,0,0,-1,0
S1B_IW_GRDH_1SDV_20170924T042644_20170924T042709_007529_00D4AB_A085,SENTINEL-1B,SENTINEL-1 C-SAR,IW,7529,153,153,218,2017-09-24T04:27:09Z,2017-09-25T03:24:15Z,GRD_HD,2017-09-24T04:26:44Z,2017-09-24T04:27:09Z,67.3562,-164.8152,66.3551,-167.2092,66.8289,-161.5506,67.8212,-168.2134,68.313,-162.2054,NaN,Ascending,822.99 MB,-1,0,0,-1,0
S1B_IW_GRDH_1SDV_20170924T042619_20170924T042644_007529_00D4AB_6757,SENTINEL-1B,SENTINEL-1 C-SAR,IW,7529,153,153,213,2017-09-24T04:26:44Z,2017-09-25T03:26:01Z,GRD_HD,2017-09-24T04:26:19Z,2017-09-24T04:26:44Z,65.878,-164.017,64.8852,-166.2917,65.3435,-160.9439,66.355,-167.2091,66.8287,-161.5524,NaN,Ascending,881.87 MB,-1,0,0,-1,0
S1B_IW_GRDH_1SDV_20170924T042554_20170924T042619_007529_00D4AB_C024,SENTINEL-1B,SENTINEL-1 C-SAR,IW,7529,153,153,208,2017-09-24T04:26:19Z,2017-09-25T03:26:56Z,GRD_HD,2017-09-24T04:25:54Z,2017-09-24T04:26:19Z,64.3968,-163.2903,63.41,-165.4663,63.8558,-160.395,64.8851,-166.2917,65.3433,-160.9458,NaN,Ascending,865.34 MB,-1,0,0,-1,0
S1B_IW_GRDH_1SDV_20170924T042529_20170924T042554_007529_00D4AB_3AF7,SENTINEL-1B,SENTINEL-1 C-SAR,IW,7529,153,153,203,2017-09-24T04:25:54Z,2017-09-25T17:10:44Z,GRD_HD,2017-09-24T04:25:29Z,2017-09-24T04:25:54Z,62.9132,-162.6221,61.9325,-164.6974,62.3675,-159.8733,63.4099,-165.4662,63.8556,-160.3968,NaN,Ascending,918.31 MB,-1,0,0,-1,0
S1B_IW_GRDH_1SDV_20170924T042504_20170924T042529_007529_00D4AB_92B5,SENTINEL-1B,SENTINEL-1 C-SAR,IW,7529,153,153,198,2017-09-24T04:25:29Z,2017-09-25T03:24:06Z,GRD_HD,2017-09-24T04:25:04Z,2017-09-24T04:25:29Z,61.4277,-161.9996,60.4517,-163.9895,60.8776,-159.3875,61.9324,-164.6973,62.3673,-159.875,NaN,Ascending,943.36 MB,-1,0,0,-1,0
S1B_IW_GRDH_1SDV_20170924T042439_20170924T042504_007529_00D4AB_4CFC,SENTINEL-1B,SENTINEL-1 C-SAR,IW,7529,153,153,193,2017-09-24T04:25:04Z,2017-09-25T03:24:17Z,GRD_HD,2017-09-24T04:24:39Z,2017-09-24T04:25:04Z,59.9403,-161.4192,58.9684,-163.3281,59.3869,-158.9263,60.4516,-163.9895,60.8774,-159.3891,NaN,Ascending,911.77 MB,-1,0,0,-1,0
S1B_IW_GRDH_1SDV_20170923T153116_20170923T153141_007521_00D477_C7FE,SENTINEL-1B,SENTINEL-1 C-SAR,IW,7521,145,145,392,2017-09-23T15:31:41Z,2017-09-24T05:36:25Z,GRD_HD,2017-09-23T15:31:16Z,2017-09-23T15:31:41Z,60.0884,-137.5357,60.6012,-134.9715,61.0242,-139.5564,59.1183,-135.6361,59.5338,-140.0219,NaN,Descending,968.78 MB,-1,0,0,-1,0
S1B_IW_GRDH_1SDV_20170923T153047_20170923T153116_007521_00D477_FA95,SENTINEL-1B,SENTINEL-1 C-SAR,IW,7521,145,145,386,2017-09-23T15:31:16Z,2017-09-24T05:33:28Z,GRD_HD,2017-09-23T15:30:47Z,2017-09-23T15:31:20Z,61.4293,-136.8392,62.5562,-138.8241,60.6142,-139.4563,62.1967,-134.0873,60.2705,-135.0014,NaN,Descending,1.03 GB,-1,0,0,-1,0
S1A_IW_GRDH_1SDV_20170923T025741_20170923T025808_018497_01F294_759F,SENTINEL-1A,SENTINEL-1 C-SAR,IW,18497,50,50,227,2017-09-23T02:58:08Z,2017-09-23T14:37:36Z,GRD_HD,2017-09-23T02:57:41Z,2017-09-23T02:58:08Z,70.1226,-143.8715,69.0481,-146.4436,69.5548,-140.1071,70.6143,-147.8292,71.1501,-141.0097,NaN,Ascending,884.72 MB,-1,0,0,-1,0
S1A_IW_GRDH_1SDV_20170923T025716_20170923T025741_018497_01F294_7546,SENTINEL-1A,SENTINEL-1 C-SAR,IW,18497,50,50,222,2017-09-23T02:57:41Z,2017-09-23T14:58:17Z,GRD_HD,2017-09-23T02:57:16Z,2017-09-23T02:57:41Z,68.5925,-142.8603,67.584,-145.3696,68.0707,-139.4245,69.0479,-146.4435,69.5546,-140.1087,NaN,Ascending,951.36 MB,-1,0,0,-1,0
S1A_IW_GRDH_1SDV_20170923T025651_20170923T025716_018497_01F294_2D6B,SENTINEL-1A,SENTINEL-1 C-SAR,IW,18497,50,50,217,2017-09-23T02:57:16Z,2017-09-23T21:40:19Z,GRD_HD,2017-09-23T02:56:51Z,2017-09-23T02:57:16Z,67.1148,-142.0209,66.1148,-144.4038,66.5849,-138.803,67.5839,-145.3695,68.0706,-139.4261,NaN,Ascending,947.65 MB,-1,0,0,-1,0
S1A_IW_GRDH_1SDV_20170923T025626_20170923T025651_018497_01F294_BE8F,SENTINEL-1A,SENTINEL-1 C-SAR,IW,18497,50,50,212,2017-09-23T02:56:51Z,2017-09-23T14:58:30Z,GRD_HD,2017-09-23T02:56:26Z,2017-09-23T02:56:51Z,65.6364,-141.2325,64.6468,-143.4751,65.1009,-138.1786,66.1147,-144.4038,66.5846,-138.8049,NaN,Ascending,971.50 MB,-1,0,0,-1,0
S1A_IW_GRDH_1SDV_20170923T025601_20170923T025626_018497_01F294_10EE,SENTINEL-1A,SENTINEL-1 C-SAR,IW,18497,50,50,207,2017-09-23T02:56:26Z,2017-09-23T14:35:08Z,GRD_HD,2017-09-23T02:56:01Z,2017-09-23T02:56:26Z,64.1555,-140.5073,63.1703,-142.6687,63.6125,-137.6436,64.6467,-143.4751,65.1007,-138.1805,NaN,Ascending,976.78 MB,-1,0,0,-1,0
S1A_IW_GRDH_1SDV_20170923T025536_20170923T025601_018497_01F294_FBE4,SENTINEL-1A,SENTINEL-1 C-SAR,IW,18497,50,50,202,2017-09-23T02:56:01Z,2017-09-25T17:14:05Z,GRD_HD,2017-09-23T02:55:36Z,2017-09-23T02:56:01Z,62.672,-139.8442,61.6939,-141.8962,62.1251,-137.1137,63.1702,-142.6687,63.6123,-137.6454,NaN,Ascending,951.92 MB,-1,0,0,-1,0
S1A_IW_GRDH_1SDV_20170923T025511_20170923T025536_018497_01F294_EE86,SENTINEL-1A,SENTINEL-1 C-SAR,IW,18497,50,50,197,2017-09-23T02:55:36Z,2017-09-23T14:36:11Z,GRD_HD,2017-09-23T02:55:11Z,2017-09-23T02:55:36Z,61.1878,-139.2126,60.2148,-141.1782,60.6366,-136.6138,61.6938,-141.8962,62.1249,-137.1154,NaN,Ascending,970.58 MB,-1,0,0,-1,0
S1A_IW_GRDH_1SDV_20170922T171859_20170922T171921_018491_01F25C_BFAC,SENTINEL-1A,SENTINEL-1 C-SAR,IW,18491,44,44,393,2017-09-22T17:19:21Z,2017-09-22T23:09:49Z,GRD_HD,2017-09-22T17:18:59Z,2017-09-22T17:19:21Z,60.0034,-164.3125,60.4217,-161.7948,60.8444,-166.3636,59.1276,-162.3724,59.5439,-166.7683,NaN,Descending,682.14 MB,-1,0,0,-1,0
S1A_IW_GRDH_1SDV_20170922T171834_20170922T171859_018491_01F25C_C201,SENTINEL-1A,SENTINEL-1 C-SAR,IW,18491,44,44,388,2017-09-22T17:18:59Z,2017-09-22T23:26:58Z,GRD_HD,2017-09-22T17:18:34Z,2017-09-22T17:18:59Z,61.396,-163.7703,61.9027,-161.09,62.3343,-165.879,60.4217,-161.7947,60.8446,-166.3653,NaN,Descending,888.97 MB,-1,0,0,-1,0
S1A_IW_GRDH_1SDV_20170922T171809_20170922T171834_018491_01F25C_0408,SENTINEL-1A,SENTINEL-1 C-SAR,IW,18491,44,44,383,2017-09-22T17:18:34Z,2017-09-22T23:20:32Z,GRD_HD,2017-09-22T17:18:09Z,2017-09-22T17:18:34Z,62.8817,-163.1513,63.3807,-160.3271,63.8229,-165.3613,61.9028,-161.09,62.3345,-165.8807,NaN,Descending,901.10 MB,-1,0,0,-1,0
S1A_IW_GRDH_1SDV_20170922T171744_20170922T171809_018491_01F25C_7F43,SENTINEL-1A,SENTINEL-1 C-SAR,IW,18491,44,44,378,2017-09-22T17:18:09Z,2017-09-22T23:10:20Z,GRD_HD,2017-09-22T17:17:44Z,2017-09-22T17:18:09Z,64.3654,-162.4852,64.8557,-159.5015,65.3104,-164.81,63.3808,-160.327,63.8231,-165.3633,NaN,Descending,873.05 MB,-1,0,0,-1,0
S1A_IW_GRDH_1SDV_20170922T171719_20170922T171744_018491_01F25C_8DDF,SENTINEL-1A,SENTINEL-1 C-SAR,IW,18491,44,44,373,2017-09-22T17:17:44Z,2017-09-22T23:09:05Z,GRD_HD,2017-09-22T17:17:19Z,2017-09-22T17:17:44Z,65.8466,-161.7592,66.3259,-158.5881,66.7959,-164.2047,64.8557,-159.5014,65.3106,-164.8117,NaN,Descending,892.01 MB,-1,0,0,-1,0
S1A_IW_GRDH_1SDV_20170922T171654_20170922T171719_018491_01F25C_5609,SENTINEL-1A,SENTINEL-1 C-SAR,IW,18491,44,44,368,2017-09-22T17:17:19Z,2017-09-22T21:46:16Z,GRD_HD,2017-09-22T17:16:54Z,2017-09-22T17:17:19Z,67.3256,-160.9725,67.7941,-157.6059,68.2812,-163.5712,66.326,-158.5881,66.7961,-164.2065,NaN,Descending,919.05 MB,-1,0,0,-1,0
S1A_IW_GRDH_1SDV_20171012T161020_20171012T161049_018782_01FB3C_44F8,SENTINEL-1A,SENTINEL-1 C-SAR,IW,18782,160,160,359,2017-10-12T16:10:49.787632,2017-10-15T08:05:28Z,GRD_HD,2017-10-12T16:10:20.745261,2017-10-12T16:10:49.787632,69.8465,-142.9748,70.403656,-139.045212,70.93174,-145.748138,68.715836,-140.492065,69.214287,-146.69194,NaN,Descending,958.31 MB,0,,,0,
S1B_IW_GRDH_1SDV_20171012T033754_20171012T033819_007791_00DC29_7207,SENTINEL-1B,SENTINEL-1 C-SAR,IW,7791,65,65,225,2017-10-12T03:38:19.045356,2017-10-14T23:17:37Z,GRD_HD,2017-10-12T03:37:54.047381,2017-10-12T03:38:19.045356,69.2341,-153.5685,68.224487,-156.099731,68.717766,-150.012589,69.680626,-157.281006,70.197464,-150.783096,NaN,Ascending,884.29 MB,0,,,0,
S1B_IW_GRDH_1SDV_20171012T033729_20171012T033754_007791_00DC29_31E9,SENTINEL-1B,SENTINEL-1 C-SAR,IW,7791,65,65,220,2017-10-12T03:37:54.045878,2017-10-14T23:35:10Z,GRD_HD,2017-10-12T03:37:29.046401,2017-10-12T03:37:54.045878,67.7601,-152.6613,66.757774,-155.085556,67.232933,-149.360428,68.224403,-156.099655,68.717567,-150.014236,NaN,Ascending,925.41 MB,0,,,0,
S1B_IW_GRDH_1SDV_20171012T033704_20171012T033729_007791_00DC29_1D35,SENTINEL-1B,SENTINEL-1 C-SAR,IW,7791,65,65,215,2017-10-12T03:37:29.044902,2017-10-14T23:41:23Z,GRD_HD,2017-10-12T03:37:04.046926,2017-10-12T03:37:29.044902,66.2817,-151.8549,65.2883,-154.151825,65.747597,-148.746918,66.757683,-155.085495,67.232712,-149.362442,NaN,Ascending,945.70 MB,0,,,0,
S1B_IW_GRDH_1SDV_20171012T033639_20171012T033704_007791_00DC29_D585,SENTINEL-1B,SENTINEL-1 C-SAR,IW,7791,65,65,210,2017-10-12T03:37:04.045424,2017-10-14T23:42:44Z,GRD_HD,2017-10-12T03:36:39.047449,2017-10-12T03:37:04.045424,64.8009,-151.115,63.814018,-153.308167,64.260284,-148.187424,65.288216,-154.151764,65.747383,-148.748825,NaN,Ascending,961.13 MB,0,,,0,
S1B_IW_GRDH_1SDV_20171012T033614_20171012T033639_007791_00DC29_DD3B,SENTINEL-1B,SENTINEL-1 C-SAR,IW,7791,65,65,205,2017-10-12T03:36:39.045947,2017-10-14T23:21:14Z,GRD_HD,2017-10-12T03:36:14.046470,2017-10-12T03:36:39.045947,63.3185,-150.4261,62.338757,-152.509918,62.773243,-147.64238,63.813931,-153.308105,64.260063,-148.189224,NaN,Ascending,975.66 MB,0,,,0,
S1B_IW_GRDH_1SDV_20171012T033549_20171012T033614_007791_00DC29_BE48,SENTINEL-1B,SENTINEL-1 C-SAR,IW,7791,65,65,200,2017-10-12T03:36:14.044968,2017-10-14T23:26:59Z,GRD_HD,2017-10-12T03:35:49.046993,2017-10-12T03:36:14.044968,61.833,-149.7982,60.855927,-151.813614,61.281975,-147.174103,62.338661,-152.509918,62.773026,-147.644135,NaN,Ascending,981.93 MB,0,,,0,
S1B_IW_GRDH_1SDV_20171012T033520_20171012T033549_007791_00DC29_D73E,SENTINEL-1B,SENTINEL-1 C-SAR,IW,7791,65,65,194,2017-10-12T03:35:49.045492,2017-10-14T23:31:17Z,GRD_HD,2017-10-12T03:35:20.346016Z,2017-10-12T03:35:52.745582Z,60.1915,-149.3414,60.966,-151.9806,59.0371,-151.1189,61.3152,-147.4291,59.372,-146.8261,NaN,Ascending,1002.32 MB,0,,,0,
S1A_IW_GRDH_1SDV_20171010T162916_20171010T162941_018753_01FA68_BCDD,SENTINEL-1A,SENTINEL-1 C-SAR,IW,18753,131,131,388,2017-10-10T16:29:41.397911,2017-10-13T18:54:39Z,GRD_HD,2017-10-10T16:29:16.399335,2017-10-10T16:29:41.397911,61.1871,-151.5117,61.692665,-148.831909,62.126015,-153.621841,60.211823,-149.533936,60.636517,-154.1073,NaN,Descending,968.85 MB,0,,,0,
S1A_IW_GRDH_1SDV_20171010T162851_20171010T162916_018753_01FA68_D2CF,SENTINEL-1A,SENTINEL-1 C-SAR,IW,18753,131,131,383,2017-10-10T16:29:16.397834,2017-10-13T18:49:23Z,GRD_HD,2017-10-10T16:28:51.399259,2017-10-10T16:29:16.397834,62.674,-150.9105,63.173927,-148.10437,63.616657,-153.137604,61.69276,-148.831894,62.126228,-153.62355,NaN,Descending,983.35 MB,0,,,0,
S1A_IW_GRDH_1SDV_20171010T162826_20171010T162851_018753_01FA68_2CE5,SENTINEL-1A,SENTINEL-1 C-SAR,IW,18753,131,131,378,2017-10-10T16:28:51.397758,2017-10-13T18:46:15Z,GRD_HD,2017-10-10T16:28:26.399182,2017-10-10T16:28:51.397758,64.1575,-150.2462,64.645073,-147.247803,65.101593,-152.55249,63.174019,-148.10434,63.616871,-153.139389,NaN,Descending,978.65 MB,0,,,0,
S1A_IW_GRDH_1SDV_20171010T162801_20171010T162826_018753_01FA68_F3D9,SENTINEL-1A,SENTINEL-1 C-SAR,IW,18753,131,131,373,2017-10-10T16:28:26.397681,2017-10-13T18:49:40Z,GRD_HD,2017-10-10T16:28:01.399106,2017-10-10T16:28:26.397681,65.6373,-149.5107,66.116264,-146.350235,66.587593,-151.960129,64.645164,-147.247757,65.101807,-152.554352,NaN,Descending,979.08 MB,0,,,0,
S1A_IW_GRDH_1SDV_20171010T162736_20171010T162801_018753_01FA68_206F,SENTINEL-1A,SENTINEL-1 C-SAR,IW,18753,131,131,368,2017-10-10T16:28:01.397605,2017-10-13T18:50:59Z,GRD_HD,2017-10-10T16:27:36.399029,2017-10-10T16:28:01.397605,67.1172,-148.7399,67.585709,-145.387299,68.073631,-151.342133,66.116356,-146.350174,66.587799,-151.961868,NaN,Descending,911.70 MB,0,,,0,
S1A_IW_GRDH_1SDV_20171010T162711_20171010T162736_018753_01FA68_A2A2,SENTINEL-1A,SENTINEL-1 C-SAR,IW,18753,131,131,363,2017-10-10T16:27:36.397528,2017-10-13T18:50:51Z,GRD_HD,2017-10-10T16:27:11.398953,2017-10-10T16:27:36.397528,68.5949,-147.8999,69.049286,-144.308395,69.557411,-150.655502,67.5858,-145.387268,68.07383,-151.343796,NaN,Descending,944.38 MB,0,,,0,
S1A_IW_GRDH_1SDV_20171010T162642_20171010T162711_018753_01FA68_22BB,SENTINEL-1A,SENTINEL-1 C-SAR,IW,18753,131,131,357,2017-10-10T16:27:11.397452,2017-10-13T18:53:36Z,GRD_HD,2017-10-10T16:26:42.362538,2017-10-10T16:27:11.397452,70.1849,-146.8453,70.734108,-142.813614,71.273735,-149.686325,69.049377,-144.308334,69.557625,-150.657471,NaN,Descending,902.73 MB,0,,,0,
S1B_IW_GRDH_1SDV_20171010T035421_20171010T035445_007762_00DB4E_78B6,SENTINEL-1B,SENTINEL-1 C-SAR,IW,7762,36,36,225,2017-10-10T03:54:45.960883,2017-10-12T21:05:51Z,GRD_HD,2017-10-10T03:54:21.564554,2017-10-10T03:54:45.960883,69.2208,-157.6937,68.227638,-160.24472,68.722649,-154.146011,69.649338,-161.391129,70.167137,-154.89151,NaN,Ascending,780.90 MB,0,,,0,
S1B_IW_GRDH_1SDV_20171010T035356_20171010T035421_007762_00DB4E_789E,SENTINEL-1B,SENTINEL-1 C-SAR,IW,7762,36,36,220,2017-10-10T03:54:21.563053,2017-10-12T20:49:00Z,GRD_HD,2017-10-10T03:53:56.564771,2017-10-10T03:54:21.563053,67.764,-156.8031,66.760559,-159.234116,67.237518,-153.499023,68.227547,-160.244659,68.722427,-154.148163,NaN,Ascending,919.64 MB,0,,,0,
S1B_IW_GRDH_1SDV_20171010T035331_20171010T035356_007762_00DB4E_2193,SENTINEL-1B,SENTINEL-1 C-SAR,IW,7762,36,36,215,2017-10-10T03:53:56.563271,2017-10-12T20:50:40Z,GRD_HD,2017-10-10T03:53:31.563488,2017-10-10T03:53:56.563271,66.2854,-155.9986,65.290901,-158.30043,65.751999,-152.885818,66.760475,-159.23407,67.237312,-153.500824,NaN,Ascending,955.02 MB,0,,,0,
S1B_IW_GRDH_1SDV_20171010T035306_20171010T035331_007762_00DB4E_E666,SENTINEL-1B,SENTINEL-1 C-SAR,IW,7762,36,36,210,2017-10-10T03:53:31.561984,2017-10-12T21:05:27Z,GRD_HD,2017-10-10T03:53:06.563702,2017-10-10T03:53:31.561984,64.8049,-155.2538,63.817574,-157.446915,64.265259,-152.316727,65.290817,-158.300385,65.751793,-152.887512,NaN,Ascending,982.54 MB,0,,,0,
S1B_IW_GRDH_1SDV_20171010T035241_20171010T035306_007762_00DB4E_2E78,SENTINEL-1B,SENTINEL-1 C-SAR,IW,7762,36,36,205,2017-10-10T03:53:06.562203,2017-10-12T20:53:20Z,GRD_HD,2017-10-10T03:52:41.563921,2017-10-10T03:53:06.562203,63.3223,-154.567,62.340977,-156.66124,62.777302,-151.785187,63.817486,-157.446869,64.265045,-152.318527,NaN,Ascending,980.64 MB,0,,,0,
S1B_IW_GRDH_1SDV_20171010T035216_20171010T035241_007762_00DB4E_BD8B,SENTINEL-1B,SENTINEL-1 C-SAR,IW,7762,36,36,200,2017-10-10T03:52:41.562420,2017-10-12T20:58:40Z,GRD_HD,2017-10-10T03:52:16.564138,2017-10-10T03:52:41.562420,61.8377,-153.9284,60.861679,-155.93187,61.288357,-151.283905,62.340889,-156.661194,62.777077,-151.787094,NaN,Ascending,994.88 MB,0,,,0,
S1B_IW_GRDH_1SDV_20171010T035151_20171010T035216_007762_00DB4E_5F3C,SENTINEL-1B,SENTINEL-1 C-SAR,IW,7762,36,36,195,2017-10-10T03:52:16.562637,2017-10-12T20:47:30Z,GRD_HD,2017-10-10T03:51:51.564355,2017-10-10T03:52:16.562637,60.3507,-153.3388,59.378105,-155.267731,59.797226,-150.825195,60.861591,-155.931824,61.288143,-151.285538,NaN,Ascending,952.28 MB,0,,,0,
S1A_IW_GRDH_1SDV_20171009T172711_20171009T172739_018739_01F9F3_3B76,SENTINEL-1A,SENTINEL-1 C-SAR,IW,18739,117,117,392,2017-10-09T17:27:39.159788,2017-10-12T13:04:02Z,GRD_HD,2017-10-09T17:27:11.823086,2017-10-09T17:27:39.159788,59.9594,-166.3872,60.541573,-163.797241,60.965034,-168.383133,58.919552,-164.51857,59.334991,-168.888107,NaN,Descending,885.61 MB,0,,,0,
S1A_IW_GRDH_1SDV_20171009T172646_20171009T172711_018739_01F9F3_519D,SENTINEL-1A,SENTINEL-1 C-SAR,IW,18739,117,117,387,2017-10-09T17:27:11.821574,2017-10-12T10:42:27Z,GRD_HD,2017-10-09T17:26:46.822742,2017-10-09T17:27:11.821574,61.5162,-165.7781,62.022137,-163.085403,62.454643,-167.893311,60.54166,-163.79718,60.965244,-168.384735,NaN,Descending,856.51 MB,0,,,0,
S1A_IW_GRDH_1SDV_20171009T172621_20171009T172646_018739_01F9F3_9E74,SENTINEL-1A,SENTINEL-1 C-SAR,IW,18739,117,117,382,2017-10-09T17:26:46.821240,2017-10-12T10:33:25Z,GRD_HD,2017-10-09T17:26:21.822409,2017-10-09T17:26:46.821240,63.0015,-165.1528,63.499603,-162.31488,63.942963,-167.370087,62.022228,-163.085358,62.454857,-167.895004,NaN,Descending,838.67 MB,0,,,0,
S1A_IW_GRDH_1SDV_20171009T172556_20171009T172621_018739_01F9F3_5AEB,SENTINEL-1A,SENTINEL-1 C-SAR,IW,18739,117,117,377,2017-10-09T17:26:21.820907,2017-10-12T10:49:32Z,GRD_HD,2017-10-09T17:25:56.823578,2017-10-09T17:26:21.820907,64.4852,-164.4837,64.974838,-161.488861,65.430687,-166.821075,63.499691,-162.314835,63.943192,-167.37207,NaN,Descending,858.53 MB,0,,,0,
S1A_IW_GRDH_1SDV_20171009T172531_20171009T172556_018739_01F9F3_1DEA,SENTINEL-1A,SENTINEL-1 C-SAR,IW,18739,117,117,372,2017-10-09T17:25:56.822076,2017-10-12T10:56:17Z,GRD_HD,2017-10-09T17:25:31.823245,2017-10-09T17:25:56.822076,65.9662,-163.7542,66.444466,-160.565903,66.915863,-166.209076,64.97493,-161.4888,65.430893,-166.822739,NaN,Descending,877.97 MB,0,,,0,
S1A_IW_GRDH_1SDV_20171009T172506_20171009T172531_018739_01F9F3_D2EE,SENTINEL-1A,SENTINEL-1 C-SAR,IW,18739,117,117,367,2017-10-09T17:25:31.821742,2017-10-12T10:53:52Z,GRD_HD,2017-10-09T17:25:06.822912,2017-10-09T17:25:31.821742,67.4451,-162.9624,67.912827,-159.580093,68.401459,-165.575668,66.44455,-160.565842,66.916069,-166.210846,NaN,Descending,879.64 MB,0,,,0,
S1A_IW_GRDH_1SDV_20171009T172441_20171009T172506_018739_01F9F3_5082,SENTINEL-1A,SENTINEL-1 C-SAR,IW,18739,117,117,362,2017-10-09T17:25:06.821411,2017-10-12T12:42:27Z,GRD_HD,2017-10-09T17:24:41.822580,2017-10-09T17:25:06.821411,68.9209,-162.0861,69.372047,-158.442642,69.882843,-164.838867,67.912918,-159.580032,68.401665,-165.577545,NaN,Descending,848.25 MB,0,,,0,
S1A_IW_GRDH_1SDV_20171009T172412_20171009T172441_018739_01F9F3_7EFC,SENTINEL-1A,SENTINEL-1 C-SAR,IW,18739,117,117,356,2017-10-09T17:24:41.821078,2017-10-12T13:07:18Z,GRD_HD,2017-10-09T17:24:12.787659,2017-10-09T17:24:41.821078,70.5101,-161.0082,71.059311,-156.951385,71.600983,-163.886993,69.372131,-158.442566,69.883041,-164.840607,NaN,Descending,880.63 MB,0,,,0,
S1A_IW_GRDH_1SDV_20171009T154821_20171009T154846_018738_01F9E9_0B62,SENTINEL-1A,SENTINEL-1 C-SAR,IW,18738,116,116,391,2017-10-09T15:48:46.138438,2017-10-12T13:00:37Z,GRD_HD,2017-10-09T15:48:21.400954,2017-10-09T15:48:46.138438,60.3907,-141.5729,60.899471,-139.026413,61.321747,-143.658554,59.423649,-139.612106,59.841206,-144.042786,NaN,Descending,885.91 MB,0,,,0,
S1A_IW_GRDH_1SDV_20171009T154756_20171009T154821_018738_01F9E9_640E,SENTINEL-1A,SENTINEL-1 C-SAR,IW,18738,116,116,386,2017-10-09T15:48:21.399453,2017-10-12T10:23:39Z,GRD_HD,2017-10-09T15:47:56.400738,2017-10-09T15:48:21.399453,61.8713,-141.0006,62.373764,-138.251587,62.807301,-143.11116,60.899563,-139.026398,61.32196,-143.660217,NaN,Descending,957.45 MB,0,,,0,
S1A_IW_GRDH_1SDV_20171009T154731_20171009T154756_018738_01F9E9_FA94,SENTINEL-1A,SENTINEL-1 C-SAR,IW,18738,116,116,381,2017-10-09T15:47:56.399237,2017-10-12T10:35:44Z,GRD_HD,2017-10-09T15:47:31.400521,2017-10-09T15:47:56.399237,63.3536,-140.3383,63.850281,-137.465378,64.295135,-142.578537,62.373852,-138.251541,62.80751,-143.112885,NaN,Descending,946.93 MB,0,,,0,
S1A_IW_GRDH_1SDV_20171009T154706_20171009T154731_018738_01F9E9_FBE0,SENTINEL-1A,SENTINEL-1 C-SAR,IW,18738,116,116,376,2017-10-09T15:47:31.399020,2017-10-12T11:20:24Z,GRD_HD,2017-10-09T15:47:06.400305,2017-10-09T15:47:31.399020,64.8365,-139.6547,65.324394,-136.619492,65.782341,-142.017014,63.850372,-137.465347,64.295357,-142.580338,NaN,Descending,940.32 MB,0,,,0,
S1A_IW_GRDH_1SDV_20171009T154641_20171009T154706_018738_01F9E9_011A,SENTINEL-1A,SENTINEL-1 C-SAR,IW,18738,116,116,371,2017-10-09T15:47:06.398808,2017-10-12T10:28:34Z,GRD_HD,2017-10-09T15:46:41.400091,2017-10-09T15:47:06.398808,66.3167,-138.907,66.792534,-135.67189,67.266815,-141.389389,65.324486,-136.619431,65.782562,-142.018921,NaN,Descending,919.67 MB,0,,,0,
S1A_IW_GRDH_1SDV_20171009T154616_20171009T154641_018738_01F9E9_DACA,SENTINEL-1A,SENTINEL-1 C-SAR,IW,18738,116,116,366,2017-10-09T15:46:41.398590,2017-10-12T13:05:04Z,GRD_HD,2017-10-09T15:46:16.399873,2017-10-09T15:46:41.398590,67.7933,-138.0782,68.256157,-134.62674,68.749748,-140.706573,66.792625,-135.671829,67.267021,-141.391174,NaN,Descending,905.85 MB,0,,,0,
S1A_IW_GRDH_1SDV_20171009T154547_20171009T154616_018738_01F9E9_E422,SENTINEL-1A,SENTINEL-1 C-SAR,IW,18738,116,116,360,2017-10-09T15:46:16.398370,2017-10-12T10:59:37Z,GRD_HD,2017-10-09T15:45:47.361066,2017-10-09T15:46:16.398370,69.3858,-137.0873,69.94944,-133.263489,70.469971,-139.827942,68.256248,-134.626678,68.749947,-140.708237,NaN,Descending,941.82 MB,0,,,0,
S1A_IW_GRDH_1SDV_20171008T164333_20171008T164401_018724_01F978_ADE1,SENTINEL-1A,SENTINEL-1 C-SAR,IW,18724,102,102,362,2017-10-08T16:44:01.398111,2017-10-11T21:52:25Z,GRD_HD,2017-10-08T16:43:33.024279,2017-10-08T16:44:01.398111,68.8373,-151.8849,69.390518,-148.198196,69.894936,-154.523636,67.736412,-149.50351,68.215363,-155.384827,NaN,Descending,943.68 MB,0,,,0,
S1A_IW_GRDH_1SDV_20171008T164303_20171008T164333_018724_01F978_4721,SENTINEL-1A,SENTINEL-1 C-SAR,IW,18724,102,102,356,2017-10-08T16:43:33.022777,2017-10-11T21:48:55Z,GRD_HD,2017-10-08T16:43:03.990940,2017-10-08T16:43:33.022777,70.5247,-150.7297,71.07798,-146.71019,71.612877,-153.569519,69.390602,-148.19812,69.895134,-154.525391,NaN,Descending,883.03 MB,0,,,0,
S1B_IW_GRDH_1SDV_20171008T040802_20171008T040833_007733_00DA84_7CF5,SENTINEL-1B,SENTINEL-1 C-SAR,IW,7733,7,7,191,2017-10-08T04:08:33Z,2017-10-10T12:59:46Z,GRD_HD,2017-10-08T04:08:02Z,2017-10-08T04:08:33Z,59.5258,-157.1657,58.3792,-158.9626,58.7916,-154.6795,60.2185,-159.756,60.6391,-155.2361,NaN,Ascending,1.11 GB,-1,0,0,-1,0
S1A_IW_GRDH_1SDV_20171007T174156_20171007T174221_018710_01F915_334E,SENTINEL-1A,SENTINEL-1 C-SAR,IW,18710,88,88,371,2017-10-07T17:42:21Z,2017-10-09T23:44:12Z,GRD_HD,2017-10-07T17:41:56Z,2017-10-07T17:42:21Z,66.1545,-167.7646,66.6319,-164.558,67.1049,-170.2362,65.1623,-165.4854,65.6197,-170.8499,NaN,Descending,819.66 MB,-1,0,0,-1,0
S1A_IW_GRDH_1SDV_20171007T174131_20171007T174156_018710_01F915_C945,SENTINEL-1A,SENTINEL-1 C-SAR,IW,18710,88,88,366,2017-10-07T17:41:56Z,2017-10-09T23:14:07Z,GRD_HD,2017-10-07T17:41:31Z,2017-10-07T17:41:56Z,67.6328,-166.9592,68.0981,-163.5443,68.5893,-169.5799,66.632,-164.5579,67.1051,-170.238,NaN,Descending,767.25 MB,-1,0,0,-1,0
S1A_IW_GRDH_1SDV_20171007T174101_20171007T174131_018710_01F915_0F89,SENTINEL-1A,SENTINEL-1 C-SAR,IW,18710,88,88,361,2017-10-07T17:41:31Z,2017-10-09T23:32:03Z,GRD_HD,2017-10-07T17:41:02Z,2017-10-07T17:41:34Z,69.0001,-165.9804,70.1594,-168.5647,68.2269,-169.5119,69.7006,-162.2056,67.8007,-163.6684,NaN,Descending,902.41 MB,-1,0,0,-1,0
S1A_IW_GRDH_1SDV_20171006T170230_20171006T170255_018695_01F8A7_197C,SENTINEL-1A,SENTINEL-1 C-SAR,IW,18695,73,73,392,2017-10-06T17:02:55Z,2017-10-08T15:56:58Z,GRD_HD,2017-10-06T17:02:30Z,2017-10-06T17:02:55Z,60.0575,-160.1762,60.5677,-157.5903,60.9951,-162.2215,59.0846,-158.2536,59.5046,-162.6839,NaN,Descending,961.16 MB,-1,0,0,-1,0
S1A_IW_GRDH_1SDV_20171006T170205_20171006T170230_018695_01F8A7_CD42,SENTINEL-1A,SENTINEL-1 C-SAR,IW,18695,73,73,387,2017-10-06T17:02:30Z,2017-10-08T16:42:09Z,GRD_HD,2017-10-06T17:02:05Z,2017-10-06T17:02:30Z,61.5446,-159.5918,62.0478,-156.8737,62.4845,-161.7295,60.5678,-157.5903,60.9954,-162.2233,NaN,Descending,986.54 MB,-1,0,0,-1,0
S1A_IW_GRDH_1SDV_20171006T170140_20171006T170205_018695_01F8A7_C851,SENTINEL-1A,SENTINEL-1 C-SAR,IW,18695,73,73,382,2017-10-06T17:02:05Z,2017-10-08T15:43:39Z,GRD_HD,2017-10-06T17:01:40Z,2017-10-06T17:02:05Z,63.0296,-158.9636,63.525,-156.0998,63.9728,-161.2056,62.0479,-156.8736,62.4847,-161.7312,NaN,Descending,966.90 MB,-1,0,0,-1,0
S1A_IW_GRDH_1SDV_20171006T170115_20171006T170140_018695_01F8A7_0A63,SENTINEL-1A,SENTINEL-1 C-SAR,IW,18695,73,73,377,2017-10-06T17:01:40Z,2017-10-08T15:55:53Z,GRD_HD,2017-10-06T17:01:15Z,2017-10-06T17:01:40Z,64.5128,-158.2883,64.9992,-155.262,65.4599,-160.6476,63.5251,-156.0997,63.973,-161.2074,NaN,Descending,966.53 MB,-1,0,0,-1,0
S1A_IW_GRDH_1SDV_20171006T170050_20171006T170115_018695_01F8A7_BF2F,SENTINEL-1A,SENTINEL-1 C-SAR,IW,18695,73,73,372,2017-10-06T17:01:15Z,2017-10-08T15:40:55Z,GRD_HD,2017-10-06T17:00:50Z,2017-10-06T17:01:15Z,65.994,-157.5593,66.47,-154.3494,66.946,-160.0496,64.9993,-155.262,65.4601,-160.6493,NaN,Descending,949.14 MB,-1,0,0,-1,0
S1A_IW_GRDH_1SDV_20171006T170025_20171006T170050_018695_01F8A7_E077,SENTINEL-1A,SENTINEL-1 C-SAR,IW,18695,73,73,367,2017-10-06T17:00:50Z,2017-10-08T15:56:13Z,GRD_HD,2017-10-06T17:00:25Z,2017-10-06T17:00:50Z,67.4737,-156.7778,67.9391,-153.3699,68.4321,-159.4265,66.4701,-154.3494,66.9462,-160.0514,NaN,Descending,943.94 MB,-1,0,0,-1,0
S1A_IW_GRDH_1SDV_20171006T170000_20171006T170025_018695_01F8A7_6049,SENTINEL-1A,SENTINEL-1 C-SAR,IW,18695,73,73,362,2017-10-06T17:00:25Z,2017-10-10T16:59:47Z,GRD_HD,2017-10-06T17:00:00Z,2017-10-06T17:00:25Z,68.9488,-155.8928,69.3955,-152.204,69.912,-158.6654,67.9391,-153.3698,68.4323,-159.4284,NaN,Descending,919.08 MB,-1,0,0,-1,0
S1A_IW_GRDH_1SDV_20171006T165931_20171006T170000_018695_01F8A7_F758,SENTINEL-1A,SENTINEL-1 C-SAR,IW,18695,73,73,356,2017-10-06T17:00:00Z,2017-10-08T21:47:41Z,GRD_HD,2017-10-06T16:59:31Z,2017-10-06T17:00:03Z,70.3183,-154.8211,71.4863,-157.5483,69.5564,-158.5916,71.001,-150.7768,69.1086,-152.403,NaN,Descending,978.38 MB,-1,0,0,-1,0
S1B_IW_GRDH_1SDV_20171006T042709_20171006T042736_007704_00D9B2_6754,SENTINEL-1B,SENTINEL-1 C-SAR,IW,7704,153,153,223,2017-10-06T04:27:36Z,2017-10-07T18:46:17Z,GRD_HD,2017-10-06T04:27:09Z,2017-10-06T04:27:36Z,68.8905,-165.7266,67.8214,-168.2118,68.3133,-162.2016,69.3983,-169.4242,69.9135,-162.9818,NaN,Ascending,844.06 MB,-1,0,0,-1,0
S1B_IW_GRDH_1SDV_20171006T042644_20171006T042709_007704_00D9B2_6FB6,SENTINEL-1B,SENTINEL-1 C-SAR,IW,7704,153,153,218,2017-10-06T04:27:09Z,2017-10-07T18:53:03Z,GRD_HD,2017-10-06T04:26:44Z,2017-10-06T04:27:09Z,67.3563,-164.8135,66.3552,-167.2076,66.829,-161.5488,67.8213,-168.2118,68.313,-162.2034,NaN,Ascending,834.69 MB,-1,0,0,-1,0
S1B_IW_GRDH_1SDV_20171006T042619_20171006T042644_007704_00D9B2_0B6E,SENTINEL-1B,SENTINEL-1 C-SAR,IW,7704,153,153,213,2017-10-06T04:26:44Z,2017-10-07T18:53:25Z,GRD_HD,2017-10-06T04:26:19Z,2017-10-06T04:26:44Z,65.8781,-164.0153,64.8853,-166.2902,65.3436,-160.9421,66.3551,-167.2075,66.8288,-161.5506,NaN,Ascending,882.32 MB,-1,0,0,-1,0
S1B_IW_GRDH_1SDV_20171006T042554_20171006T042619_007704_00D9B2_7CDE,SENTINEL-1B,SENTINEL-1 C-SAR,IW,7704,153,153,208,2017-10-06T04:26:19Z,2017-10-07T18:39:36Z,GRD_HD,2017-10-06T04:25:54Z,2017-10-06T04:26:19Z,64.3969,-163.2887,63.4101,-165.4649,63.8559,-160.3933,64.8852,-166.2902,65.3434,-160.944,NaN,Ascending,840.25 MB,-1,0,0,-1,0
S1B_IW_GRDH_1SDV_20171006T042529_20171006T042554_007704_00D9B2_2D23,SENTINEL-1B,SENTINEL-1 C-SAR,IW,7704,153,153,203,2017-10-06T04:25:54Z,2017-10-07T18:52:08Z,GRD_HD,2017-10-06T04:25:29Z,2017-10-06T04:25:54Z,62.9132,-162.6206,61.9326,-164.696,62.3675,-159.8716,63.41,-165.4648,63.8557,-160.3951,NaN,Ascending,913.15 MB,-1,0,0,-1,0
S1B_IW_GRDH_1SDV_20171006T042504_20171006T042529_007704_00D9B2_E7B2,SENTINEL-1B,SENTINEL-1 C-SAR,IW,7704,153,153,198,2017-10-06T04:25:29Z,2017-10-07T18:53:32Z,GRD_HD,2017-10-06T04:25:04Z,2017-10-06T04:25:29Z,61.4278,-161.9981,60.4517,-163.9882,60.8777,-159.3859,61.9325,-164.6959,62.3673,-159.8733,NaN,Ascending,940.70 MB,-1,0,0,-1,0
S1B_IW_GRDH_1SDV_20171006T042439_20171006T042504_007704_00D9B2_928E,SENTINEL-1B,SENTINEL-1 C-SAR,IW,7704,153,153,193,2017-10-06T04:25:04Z,2017-10-07T18:58:13Z,GRD_HD,2017-10-06T04:24:39Z,2017-10-06T04:25:04Z,59.9404,-161.4178,58.9685,-163.3268,59.387,-158.9248,60.4517,-163.9881,60.8775,-159.3875,NaN,Ascending,942.16 MB,-1,0,0,-1,0
S1B_IW_GRDH_1SDV_20171005T153116_20171005T153141_007696_00D97A_D6D7,SENTINEL-1B,SENTINEL-1 C-SAR,IW,7696,145,145,392,2017-10-05T15:31:41Z,2017-10-06T19:41:59Z,GRD_HD,2017-10-05T15:31:16Z,2017-10-05T15:31:41Z,60.0885,-137.5357,60.6012,-134.9714,61.0242,-139.5565,59.1183,-135.636,59.5338,-140.022,NaN,Descending,972.63 MB,-1,0,0,-1,0
S1B_IW_GRDH_1SDV_20171005T153047_20171005T153116_007696_00D97A_59B5,SENTINEL-1B,SENTINEL-1 C-SAR,IW,7696,145,145,386,2017-10-05T15:31:16Z,2017-10-06T19:46:31Z,GRD_HD,2017-10-05T15:30:48Z,2017-10-05T15:31:20Z,61.4295,-136.8396,62.5564,-138.8246,60.6143,-139.4567,62.1969,-134.0877,60.2707,-135.0017,NaN,Descending,1.03 GB,-1,0,0,-1,0
S1A_IW_GRDH_1SDV_20171002T173437_20171002T173502_018637_01F6D3_BB01,SENTINEL-1A,SENTINEL-1 C-SAR,IW,18637,15,15,382,2017-10-02T17:35:02Z,2017-10-03T18:12:37Z,GRD_HD,2017-10-02T17:34:37Z,2017-10-02T17:35:02Z,62.9065,-167.2475,63.4055,-164.4236,63.8476,-169.4552,61.9277,-165.1883,62.3593,-169.9763,NaN,Descending,776.22 MB,-1,0,0,-1,0
S1A_IW_GRDH_1SDV_20171002T173412_20171002T173437_018637_01F6D3_6EA7,SENTINEL-1A,SENTINEL-1 C-SAR,IW,18637,15,15,377,2017-10-02T17:34:37Z,2017-10-03T18:14:36Z,GRD_HD,2017-10-02T17:34:12Z,2017-10-02T17:34:37Z,64.3902,-166.5809,64.8807,-163.5989,65.3353,-168.9051,63.4056,-164.4236,63.8478,-169.4571,NaN,Descending,790.63 MB,-1,0,0,-1,0
S1A_IW_GRDH_1SDV_20171002T173347_20171002T173412_018637_01F6D3_8B49,SENTINEL-1A,SENTINEL-1 C-SAR,IW,18637,15,15,372,2017-10-02T17:34:12Z,2017-10-03T18:15:16Z,GRD_HD,2017-10-02T17:33:47Z,2017-10-02T17:34:12Z,65.8715,-165.8551,66.351,-162.6849,66.8208,-168.2992,64.8808,-163.5988,65.3355,-168.9068,NaN,Descending,851.74 MB,-1,0,0,-1,0
S1A_IW_GRDH_1SDV_20171002T173322_20171002T173347_018637_01F6D3_584A,SENTINEL-1A,SENTINEL-1 C-SAR,IW,18637,15,15,367,2017-10-02T17:33:47Z,2017-10-03T18:16:09Z,GRD_HD,2017-10-02T17:33:22Z,2017-10-02T17:33:47Z,67.3503,-165.0639,67.8184,-161.6936,68.3057,-167.6568,66.3511,-162.6848,66.821,-168.3012,NaN,Descending,831.73 MB,-1,0,0,-1,0
S1A_IW_GRDH_1SDV_20171002T173252_20171002T173322_018637_01F6D3_948E,SENTINEL-1A,SENTINEL-1 C-SAR,IW,18637,15,15,362,2017-10-02T17:33:22Z,2017-10-03T18:18:59Z,GRD_HD,2017-10-02T17:32:53Z,2017-10-02T17:33:25Z,68.7164,-164.0992,69.874,-166.6544,67.941,-167.5834,69.4205,-160.3776,67.5191,-161.8092,NaN,Descending,956.84 MB,-1,0,0,-1,0
S1A_IW_GRDH_1SDV_20171002T155639_20171002T155707_018636_01F6CA_9ECB,SENTINEL-1A,SENTINEL-1 C-SAR,IW,18636,14,14,392,2017-10-02T15:57:07Z,2017-10-03T16:42:16Z,GRD_HD,2017-10-02T15:56:39Z,2017-10-02T15:57:07Z,60.0427,-143.7443,60.6387,-141.1783,61.0595,-145.7595,58.9912,-141.8585,59.4056,-146.2203,NaN,Descending,983.31 MB,-1,0,0,-1,0
S1A_IW_GRDH_1SDV_20171002T155614_20171002T155639_018636_01F6CA_C2E5,SENTINEL-1A,SENTINEL-1 C-SAR,IW,18636,14,14,387,2017-10-02T15:56:39Z,2017-10-03T16:59:30Z,GRD_HD,2017-10-02T15:56:14Z,2017-10-02T15:56:39Z,61.6111,-143.1478,62.1172,-140.4473,62.5477,-145.2515,60.6388,-141.1783,61.0597,-145.7613,NaN,Descending,979.19 MB,-1,0,0,-1,0
S1A_IW_GRDH_1SDV_20171002T155549_20171002T155614_018636_01F6CA_17D7,SENTINEL-1A,SENTINEL-1 C-SAR,IW,18636,14,14,382,2017-10-02T15:56:14Z,2017-10-03T19:44:35Z,GRD_HD,2017-10-02T15:55:49Z,2017-10-02T15:56:14Z,63.0952,-142.5092,63.594,-139.669,64.0355,-144.721,62.1173,-140.4471,62.5479,-145.2532,NaN,Descending,929.55 MB,-1,0,0,-1,0
S1A_IW_GRDH_1SDV_20171002T155524_20171002T155549_018636_01F6CA_B0D0,SENTINEL-1A,SENTINEL-1 C-SAR,IW,18636,14,14,377,2017-10-02T15:55:49Z,2017-10-03T17:04:58Z,GRD_HD,2017-10-02T15:55:24Z,2017-10-02T15:55:49Z,64.5781,-141.8309,65.0682,-138.8316,65.5225,-144.1614,63.5941,-139.6689,64.0357,-144.7228,NaN,Descending,934.29 MB,-1,0,0,-1,0
S1A_IW_GRDH_1SDV_20171002T155459_20171002T155524_018636_01F6CA_D348,SENTINEL-1A,SENTINEL-1 C-SAR,IW,18636,14,14,372,2017-10-02T15:55:24Z,2017-10-03T16:47:51Z,GRD_HD,2017-10-02T15:54:59Z,2017-10-02T15:55:24Z,66.0586,-141.0933,66.5374,-137.9028,67.0075,-143.5449,65.0683,-138.8315,65.5228,-144.1633,NaN,Descending,931.87 MB,-1,0,0,-1,0
S1A_IW_GRDH_1SDV_20171002T155430_20171002T155459_018636_01F6CA_E95B,SENTINEL-1A,SENTINEL-1 C-SAR,IW,18636,14,14,366,2017-10-02T15:54:59Z,2017-10-03T16:57:18Z,GRD_HD,2017-10-02T15:54:30Z,2017-10-02T15:55:03Z,67.419,-140.1831,68.5693,-142.6144,66.6342,-143.4678,68.138,-136.6858,66.2306,-137.9878,NaN,Descending,1012.39 MB,-1,0,0,-1,0
S1B_IW_GRDH_1SDV_20171002T032129_20171002T032154_007645_00D7FD_39AC,SENTINEL-1B,SENTINEL-1 C-SAR,IW,7645,94,94,225,2017-10-02T03:21:54Z,2017-10-03T03:25:37Z,GRD_HD,2017-10-02T03:21:29Z,2017-10-02T03:21:54Z,69.4116,-149.569,68.4004,-152.12,68.8963,-145.9851,69.8563,-153.3116,70.3761,-146.7593,NaN,Ascending,904.39 MB,-1,0,0,-1,0
S1B_IW_GRDH_1SDV_20171002T032104_20171002T032129_007645_00D7FD_5937,SENTINEL-1B,SENTINEL-1 C-SAR,IW,7645,94,94,220,2017-10-02T03:21:29Z,2017-10-03T03:25:02Z,GRD_HD,2017-10-02T03:21:04Z,2017-10-02T03:21:29Z,67.9384,-148.6451,66.9361,-151.0755,67.4127,-145.3104,68.4003,-152.1199,68.896,-145.9888,NaN,Ascending,945.82 MB,-1,0,0,-1,0
S1B_IW_GRDH_1SDV_20171002T032039_20171002T032104_007645_00D7FD_9556,SENTINEL-1B,SENTINEL-1 C-SAR,IW,7645,94,94,215,2017-10-02T03:21:04Z,2017-10-03T03:24:04Z,GRD_HD,2017-10-02T03:20:39Z,2017-10-02T03:21:04Z,66.4603,-147.8292,65.4654,-150.1471,65.9264,-144.7069,66.936,-151.0754,67.4125,-145.3124,NaN,Ascending,938.64 MB,-1,0,0,-1,0
S1B_IW_GRDH_1SDV_20171002T032014_20171002T032039_007645_00D7FD_7A2D,SENTINEL-1B,SENTINEL-1 C-SAR,IW,7645,94,94,210,2017-10-02T03:20:39Z,2017-10-03T03:24:30Z,GRD_HD,2017-10-02T03:20:14Z,2017-10-02T03:20:39Z,64.9797,-147.0828,63.9928,-149.2818,64.4401,-144.1297,65.4653,-150.1471,65.9262,-144.7086,NaN,Ascending,960.36 MB,-1,0,0,-1,0
S1B_IW_GRDH_1SDV_20171002T031949_20171002T032014_007645_00D7FD_7DAA,SENTINEL-1B,SENTINEL-1 C-SAR,IW,7645,94,94,205,2017-10-02T03:20:14Z,2017-10-03T03:27:01Z,GRD_HD,2017-10-02T03:19:49Z,2017-10-02T03:20:14Z,63.4982,-146.3804,62.5181,-148.4741,62.9533,-143.5787,63.9927,-149.2817,64.4399,-144.1315,NaN,Ascending,951.86 MB,-1,0,0,-1,0
S1B_IW_GRDH_1SDV_20171002T031924_20171002T031949_007645_00D7FD_5A39,SENTINEL-1B,SENTINEL-1 C-SAR,IW,7645,94,94,200,2017-10-02T03:19:49Z,2017-10-03T03:30:37Z,GRD_HD,2017-10-02T03:19:24Z,2017-10-02T03:19:49Z,62.0138,-145.7364,61.0377,-147.7531,61.4636,-143.0877,62.5181,-148.474,62.9531,-143.5804,NaN,Ascending,946.91 MB,-1,0,0,-1,0
S1B_IW_GRDH_1SDV_20171002T031855_20171002T031924_007645_00D7FD_6DB6,SENTINEL-1B,SENTINEL-1 C-SAR,IW,7645,94,94,194,2017-10-02T03:19:24Z,2017-10-03T03:30:52Z,GRD_HD,2017-10-02T03:18:55Z,2017-10-02T03:19:28Z,60.3718,-145.2942,61.1454,-147.949,59.2168,-147.0801,61.4959,-143.3719,59.5529,-142.7649,NaN,Ascending,1018.38 MB,-1,0,0,-1,0
S1A_IW_GRDH_1SDV_20170930T174913_20170930T174942_018608_01F5F6_50C7,SENTINEL-1A,SENTINEL-1 C-SAR,IW,18608,161,161,360,2017-09-30T17:49:42Z,2017-10-02T17:29:34Z,GRD_HD,2017-09-30T17:49:13Z,2017-09-30T17:49:42Z,69.3453,-167.9651,69.9096,-164.1547,70.4293,-170.7047,68.2158,-165.5047,68.7092,-171.5736,NaN,Descending,859.65 MB,-1,0,0,-1,0
S1A_IW_GRDH_1SDV_20170930T161229_20170930T161251_018607_01F5ED_2DAB,SENTINEL-1A,SENTINEL-1 C-SAR,IW,18607,160,160,384,2017-09-30T16:12:51Z,2017-10-02T12:54:52Z,GRD_HD,2017-09-30T16:12:29Z,2017-09-30T16:12:51Z,62.4161,-146.9173,62.8355,-144.1938,63.2716,-149.1234,61.523,-144.8444,61.9507,-149.5659,NaN,Descending,778.34 MB,-1,0,0,-1,0
S1A_IW_GRDH_1SDV_20170930T161204_20170930T161229_018607_01F5ED_48C2,SENTINEL-1A,SENTINEL-1 C-SAR,IW,18607,160,160,379,2017-09-30T16:12:29Z,2017-10-02T11:52:17Z,GRD_HD,2017-09-30T16:12:04Z,2017-09-30T16:12:29Z,63.8168,-146.3083,64.3112,-143.3897,64.7592,-148.582,62.8356,-144.1937,63.2719,-149.1254,NaN,Descending,935.52 MB,-1,0,0,-1,0
S1A_IW_GRDH_1SDV_20171021T172646_20171021T172711_018914_01FF58_D069,SENTINEL-1A,SENTINEL-1 C-SAR,IW,18914,117,117,387,2017-10-21T17:27:11.950700,2017-10-24T06:02:14Z,GRD_HD,2017-10-21T17:26:46.951803,2017-10-21T17:27:11.950700,61.5163,-165.7791,62.022247,-163.086334,62.454712,-167.894485,60.541763,-163.798065,60.965309,-168.385818,NaN,Descending,837.71 MB,0,,,0,
S1A_IW_GRDH_1SDV_20171021T172621_20171021T172646_018914_01FF58_3FD0,SENTINEL-1A,SENTINEL-1 C-SAR,IW,18914,117,117,382,2017-10-21T17:26:46.950303,2017-10-24T05:56:30Z,GRD_HD,2017-10-21T17:26:21.951405,2017-10-21T17:26:46.950303,63.0016,-165.1539,63.499722,-162.315903,63.943035,-167.371353,62.022335,-163.086304,62.454926,-167.896179,NaN,Descending,819.82 MB,0,,,0,
S1A_IW_GRDH_1SDV_20171021T172556_20171021T172621_018914_01FF58_5EDC,SENTINEL-1A,SENTINEL-1 C-SAR,IW,18914,117,117,377,2017-10-21T17:26:21.949896,2017-10-24T05:56:53Z,GRD_HD,2017-10-21T17:25:56.950999,2017-10-21T17:26:21.949896,64.4853,-164.4849,64.975052,-161.489899,65.430855,-166.822388,63.499809,-162.315842,63.943264,-167.373322,NaN,Descending,829.86 MB,0,,,0,
S1A_IW_GRDH_1SDV_20171021T172531_20171021T172556_018914_01FF58_C0A9,SENTINEL-1A,SENTINEL-1 C-SAR,IW,18914,117,117,372,2017-10-21T17:25:56.949500,2017-10-24T05:53:31Z,GRD_HD,2017-10-21T17:25:31.952105,2017-10-21T17:25:56.949500,65.9664,-163.7554,66.444595,-160.567078,66.915947,-166.210541,64.975143,-161.489853,65.431061,-166.824066,NaN,Descending,842.27 MB,0,,,0,
S1A_IW_GRDH_1SDV_20171021T172506_20171021T172531_018914_01FF58_8793,SENTINEL-1A,SENTINEL-1 C-SAR,IW,18914,117,117,367,2017-10-21T17:25:31.950602,2017-10-24T06:36:20Z,GRD_HD,2017-10-21T17:25:06.951705,2017-10-21T17:25:31.950602,67.4453,-162.9638,67.912971,-159.581375,68.40155,-165.577255,66.444679,-160.567017,66.916153,-166.212311,NaN,Descending,868.47 MB,0,,,0,
S1A_IW_GRDH_1SDV_20171021T172441_20171021T172506_018914_01FF58_0D0A,SENTINEL-1A,SENTINEL-1 C-SAR,IW,18914,117,117,362,2017-10-21T17:25:06.950205,2017-10-24T06:06:00Z,GRD_HD,2017-10-21T17:24:41.951308,2017-10-21T17:25:06.950205,68.921,-162.0876,69.372192,-158.444016,69.882935,-164.840576,67.913055,-159.581299,68.401756,-165.579132,NaN,Descending,848.74 MB,0,,,0,
S1A_IW_GRDH_1SDV_20171021T172412_20171021T172441_018914_01FF58_37FC,SENTINEL-1A,SENTINEL-1 C-SAR,IW,18914,117,117,356,2017-10-21T17:24:41.949806,2017-10-24T06:09:56Z,GRD_HD,2017-10-21T17:24:12.923818,2017-10-21T17:24:41.949806,70.51,-161.01,71.059044,-156.953323,71.600639,-163.88916,69.372284,-158.443954,69.883133,-164.842331,NaN,Descending,893.97 MB,0,,,0,
S1A_IW_GRDH_1SDV_20171021T154821_20171021T154846_018913_01FF4E_4809,SENTINEL-1A,SENTINEL-1 C-SAR,IW,18913,116,116,391,2017-10-21T15:48:46.272080,2017-10-24T04:48:49Z,GRD_HD,2017-10-21T15:48:21.528526,2017-10-21T15:48:46.272080,60.3907,-141.5738,60.899612,-139.027237,61.321838,-143.659424,59.423431,-139.613037,59.840935,-144.043716,NaN,Descending,899.13 MB,0,,,0,
S1A_IW_GRDH_1SDV_20171021T154756_20171021T154821_018913_01FF4E_7F7E,SENTINEL-1A,SENTINEL-1 C-SAR,IW,18913,116,116,386,2017-10-21T15:48:21.527025,2017-10-24T04:30:13Z,GRD_HD,2017-10-21T15:47:56.529745,2017-10-21T15:48:21.527025,61.8714,-141.0015,62.373802,-138.252335,62.807304,-143.112152,60.899704,-139.027237,61.322063,-143.66127,NaN,Descending,940.75 MB,0,,,0,
S1A_IW_GRDH_1SDV_20171021T154731_20171021T154756_018913_01FF4E_80B6,SENTINEL-1A,SENTINEL-1 C-SAR,IW,18913,116,116,381,2017-10-21T15:47:56.528244,2017-10-24T04:35:57Z,GRD_HD,2017-10-21T15:47:31.529463,2017-10-21T15:47:56.528244,63.3536,-140.3393,63.850349,-137.4664,64.295158,-142.579788,62.37389,-138.252304,62.807518,-143.113876,NaN,Descending,886.93 MB,0,,,0,
S1A_IW_GRDH_1SDV_20171021T154706_20171021T154731_018913_01FF4E_E4EF,SENTINEL-1A,SENTINEL-1 C-SAR,IW,18913,116,116,376,2017-10-21T15:47:31.527967,2017-10-24T04:37:08Z,GRD_HD,2017-10-21T15:47:06.529185,2017-10-21T15:47:31.527967,64.8365,-139.6559,65.324463,-136.620544,65.782364,-142.018326,63.850441,-137.466385,64.29538,-142.581619,NaN,Descending,911.74 MB,0,,,0,
S1A_IW_GRDH_1SDV_20171021T154641_20171021T154706_018913_01FF4E_7578,SENTINEL-1A,SENTINEL-1 C-SAR,IW,18913,116,116,371,2017-10-21T15:47:06.527683,2017-10-24T04:44:31Z,GRD_HD,2017-10-21T15:46:41.528900,2017-10-21T15:47:06.527683,66.3167,-138.9082,66.792618,-135.673096,67.266853,-141.390854,65.324554,-136.620499,65.782585,-142.020233,NaN,Descending,912.12 MB,0,,,0,
S1A_IW_GRDH_1SDV_20171021T154616_20171021T154641_018913_01FF4E_6113,SENTINEL-1A,SENTINEL-1 C-SAR,IW,18913,116,116,366,2017-10-21T15:46:41.527396,2017-10-24T04:50:16Z,GRD_HD,2017-10-21T15:46:16.528615,2017-10-21T15:46:41.527396,67.7933,-138.0795,68.256248,-134.628021,68.749779,-140.707916,66.792709,-135.673035,67.267044,-141.392426,NaN,Descending,891.43 MB,0,,,0,
S1A_IW_GRDH_1SDV_20171021T154547_20171021T154616_018913_01FF4E_809E,SENTINEL-1A,SENTINEL-1 C-SAR,IW,18913,116,116,360,2017-10-21T15:46:16.527113,2017-10-24T05:29:33Z,GRD_HD,2017-10-21T15:45:47.495738,2017-10-21T15:46:16.527113,69.3857,-137.0889,69.949196,-133.265213,70.469658,-139.829895,68.25634,-134.62796,68.749985,-140.709824,NaN,Descending,933.36 MB,0,,,0,
S1A_IW_GRDH_1SDV_20171020T164333_20171020T164401_018899_01FEDE_3AA7,SENTINEL-1A,SENTINEL-1 C-SAR,IW,18899,102,102,362,2017-10-20T16:44:01.519322,2017-10-23T11:12:44Z,GRD_HD,2017-10-20T16:43:33.152913,2017-10-20T16:44:01.519322,68.8376,-151.8854,69.390617,-148.198715,69.89502,-154.52446,67.736946,-149.503662,68.215889,-155.385376,NaN,Descending,943.85 MB,0,,,0,
S1A_IW_GRDH_1SDV_20171020T164304_20171020T164333_018899_01FEDE_F200,SENTINEL-1A,SENTINEL-1 C-SAR,IW,18899,102,102,356,2017-10-20T16:43:33.151410,2017-10-23T10:46:07Z,GRD_HD,2017-10-20T16:43:04.110469,2017-10-20T16:43:33.151410,70.5251,-150.7303,71.078613,-146.710327,71.613495,-153.570175,69.390709,-148.198639,69.895218,-154.526215,NaN,Descending,905.82 MB,0,,,0,
S1B_IW_GRDH_1SDV_20171020T041057_20171020T041124_007908_00DF7C_07AB,SENTINEL-1B,SENTINEL-1 C-SAR,IW,7908,7,7,226,2017-10-20T04:11:24.318903,2017-10-21T20:29:02Z,GRD_HD,2017-10-20T04:10:57.333112,2017-10-20T04:11:24.318903,69.7791,-162.1819,68.704201,-164.746704,69.208649,-158.493607,70.275673,-166.056702,70.806557,-159.334381,NaN,Ascending,856.02 MB,0,,,0,
S1B_IW_GRDH_1SDV_20171020T041032_20171020T041057_007908_00DF7C_39C0,SENTINEL-1B,SENTINEL-1 C-SAR,IW,7908,7,7,221,2017-10-20T04:10:57.331612,2017-10-21T20:36:24Z,GRD_HD,2017-10-20T04:10:32.333316,2017-10-20T04:10:57.331612,68.2476,-161.2051,67.240784,-163.680206,67.725288,-157.80719,68.704109,-164.746628,69.208458,-158.4953,NaN,Ascending,884.19 MB,0,,,0,
S1B_IW_GRDH_1SDV_20171020T041007_20171020T041032_007908_00DF7C_93CF,SENTINEL-1B,SENTINEL-1 C-SAR,IW,7908,7,7,216,2017-10-20T04:10:32.331812,2017-10-21T23:15:04Z,GRD_HD,2017-10-20T04:10:07.332015,2017-10-20T04:10:32.331812,66.7706,-160.366,65.77243,-162.717438,66.24015,-157.179382,67.2407,-163.680145,67.725082,-157.809021,NaN,Ascending,865.15 MB,0,,,0,
S1B_IW_GRDH_1SDV_20171020T040942_20171020T041007_007908_00DF7C_926D,SENTINEL-1B,SENTINEL-1 C-SAR,IW,7908,7,7,211,2017-10-20T04:10:07.330519,2017-10-21T21:48:39Z,GRD_HD,2017-10-20T04:09:42.332222,2017-10-20T04:10:07.330519,65.2909,-159.6007,64.300285,-161.838913,64.753792,-156.597626,65.772346,-162.717377,66.239952,-157.181107,NaN,Ascending,868.33 MB,0,,,0,
S1B_IW_GRDH_1SDV_20171020T040917_20171020T040942_007908_00DF7C_62CE,SENTINEL-1B,SENTINEL-1 C-SAR,IW,7908,7,7,206,2017-10-20T04:09:42.330723,2017-10-21T22:32:51Z,GRD_HD,2017-10-20T04:09:17.332426,2017-10-20T04:09:42.330723,63.8087,-158.8978,62.824379,-161.035156,63.265984,-156.05838,64.300201,-161.838852,64.753593,-156.599258,NaN,Ascending,896.20 MB,0,,,0,
